zip,lat,long,city,state,county
35004,33.584132,-86.51557,Acmar,AL,
35005,33.588437,-86.959727,Adamsville,AL,
35006,33.434277,-87.167455,Adger,AL,
35007,33.236868,-86.812861,Keystone,AL,
35010,32.941445,-85.951086,New Site,AL,
35014,33.331165,-86.208934,Alpine,AL,
35016,34.328339,-86.489638,Arab,AL,
35019,34.268298,-86.621299,Baileyton,AL,
35020,33.409002,-86.947547,Bessemer,AL,
35023,33.414625,-86.999607,Hueytown,AL,
35031,34.092937,-86.568628,Blountsville,AL,
35033,33.973664,-87.004281,Bremen,AL,
35034,32.93567,-87.211387,Brent,AL,
35035,33.042747,-86.951672,Brierfield,AL,
35040,33.1098,-86.755987,Calera,AL,
35042,32.950324,-87.11924,Centreville,AL,
35043,33.371582,-86.614132,Chelsea,AL,
35044,33.266928,-86.337622,Coosa Pines,AL,
35045,32.835532,-86.642472,Clanton,AL,
35049,33.992106,-86.559355,Cleveland,AL,
35051,33.176964,-86.616145,Columbiana,AL,
35053,34.082117,-87.048395,Crane Hill,AL,
35054,33.506448,-86.280026,Cropwell,AL,
35055,34.176146,-86.829777,Cullman,AL,
35061,33.465424,-86.956435,Dolomite,AL,
35062,33.734947,-87.040148,Dora,AL,
35063,33.825589,-87.016139,Empire,AL,
35064,33.473494,-86.918262,Fairfield,AL,
35068,33.611283,-86.813614,Coalburg,AL,
35071,33.71891,-86.822481,Gardendale,AL,
35072,33.074642,-86.078149,Goodwater,AL,
35073,33.63356,-86.948221,Alden,AL,
35077,34.051569,-86.784844,Hanceville,AL,
35078,33.36746,-86.429441,Harpersville,AL,
35079,33.885806,-86.81767,Hayden,AL,
35080,33.316978,-86.813786,Helena,AL,
35083,34.190085,-86.617441,Holly Pond,AL,
35085,32.980539,-86.718052,Jemison,AL,
35087,34.283739,-86.551939,Joppa,AL,
35089,32.979068,-86.048397,Kellyton,AL,
35091,33.768355,-86.808417,Kimberly,AL,
35094,33.528333,-86.574824,Leeds,AL,
35096,33.605913,-86.111152,Lincoln,AL,
35098,34.184079,-87.038115,Logan,AL,
35111,33.284546,-87.102379,Mc Calla,AL,
35114,33.231694,-86.872745,Maylene,AL,
35115,33.124765,-86.862228,Montevallo,AL,
35116,33.739172,-86.772551,Morris,AL,
35117,33.67678,-86.87171,Mount Olive,AL,
35118,33.540696,-87.043998,Sylvan Springs,AL,
35120,33.675611,-86.408952,Odenville,AL,
35121,33.925858,-86.474118,Oneonta,AL,
35124,33.31046,-86.806176,Indian Springs,AL,
35125,33.597889,-86.343151,Pell City,AL,
35126,33.708131,-86.656542,Dixiana,AL,
35127,33.488336,-86.976586,Pleasant Grove,AL,
35130,33.656065,-87.10066,Quinton,AL,
35131,33.736677,-86.1619,Ragland,AL,
35133,33.846204,-86.641662,Remlap,AL,
35135,33.608832,-86.198341,Riverside,AL,
35136,32.877957,-86.240006,Rockford,AL,
35143,33.078483,-86.553606,Shelby,AL,
35146,33.738647,-86.439407,Springville,AL,
35147,33.446103,-86.491732,Sterrett,AL,
35148,33.768005,-87.044545,Sumiton,AL,
35150,33.171675,-86.271257,Sylacauga,AL,
35160,33.435445,-86.113352,Talladega,AL,
35171,32.923755,-86.746724,Thorsby,AL,
35172,33.819038,-86.743414,Trafford,AL,
35173,33.633932,-86.598068,Trussville,AL,
35175,34.409345,-86.462793,Union Grove,AL,
35176,33.480704,-86.501278,Vandiver,AL,
35178,33.401049,-86.399425,Vincent,AL,
35179,34.262121,-86.912512,Vinemont,AL,
35180,33.852862,-86.819849,Warrior,AL,
35183,33.02381,-86.304203,Weogufka,AL,
35184,33.142431,-87.13694,West Blocton,AL,
35186,33.229255,-86.529894,Wilsonville,AL,
35188,33.169808,-87.163469,Woodstock,AL,
35203,33.520994,-86.806626,Birmingham,AL,
35204,33.51795,-86.837198,Birmingham,AL,
35205,33.495144,-86.805937,Birmingham,AL,
35206,33.567797,-86.719854,Birmingham,AL,
35207,33.559383,-86.815344,Birmingham,AL,
35208,33.497658,-86.879884,Birmingham,AL,
35209,33.469624,-86.806738,Homewood,AL,
35210,33.532797,-86.685697,Irondale,AL,
35211,33.481565,-86.85904,Birmingham,AL,
35212,33.540883,-86.749524,Birmingham,AL,
35213,33.508195,-86.742108,Crestline Height,AL,
35214,33.555445,-86.886989,Birmingham,AL,
35215,33.635447,-86.693197,Center Point,AL,
35216,33.41531,-86.790425,Vestavia Hills,AL,
35217,33.5887,-86.764995,Birmingham,AL,
35218,33.505972,-86.892993,Birmingham,AL,
35221,33.452316,-86.893493,Birmingham,AL,
35222,33.521859,-86.766579,Birmingham,AL,
35223,33.488726,-86.736584,Mountain Brook,AL,
35224,33.519126,-86.934193,Birmingham,AL,
35226,33.403675,-86.831257,Bluff Park,AL,
35228,33.462446,-86.914703,Midfield,AL,
35233,33.506161,-86.800257,Birmingham,AL,
35234,33.53775,-86.80685,Birmingham,AL,
35235,33.618045,-86.661051,Center Point,AL,
35242,33.401559,-86.705511,Shoal Creek,AL,
35243,33.446053,-86.743676,Cahaba Heights,AL,
35244,33.371776,-86.776381,Hoover,AL,
35401,33.196891,-87.562666,Tuscaloosa,AL,
35404,33.210914,-87.488079,Holt,AL,
35405,33.161704,-87.514435,Tuscaloosa,AL,
35406,33.272174,-87.536035,Tuscaloosa,AL,
35441,32.872354,-87.708558,Stewart,AL,
35442,33.122813,-88.166689,Aliceville,AL,
35443,32.774646,-88.026652,Boligee,AL,
35444,33.277523,-87.309025,Brookwood,AL,
35446,33.249448,-87.718886,Buhl,AL,
35447,33.248506,-88.132122,Carrollton,AL,
35452,33.252612,-87.636528,Coker,AL,
35453,33.176667,-87.387051,Cottondale,AL,
35456,33.082815,-87.494977,Duncanville,AL,
35457,33.316559,-87.807202,Echola,AL,
35458,33.343678,-87.801429,Elrod,AL,
35459,32.754963,-88.305747,Emelle,AL,
35460,32.763371,-88.161443,Epes,AL,
35461,33.386816,-88.221987,Ethelsville,AL,
35462,32.888871,-87.930297,Eutaw,AL,
35463,33.135859,-87.735688,Fosters,AL,
35464,32.908364,-88.271558,Gainesville,AL,
35466,33.346917,-87.900504,Gordo,AL,
35469,32.982423,-87.791855,Knoxville,AL,
35470,32.588509,-88.173592,Coatopa,AL,
35474,32.978853,-87.615134,Cypress,AL,
35476,33.283425,-87.591441,Northport,AL,
35480,33.062868,-87.744984,Ralph,AL,
35481,33.395945,-88.020277,Reform,AL,
35490,33.17498,-87.257362,Vance,AL,
35501,33.871672,-87.249144,Jasper,AL,
35540,34.205571,-87.194766,Addison,AL,
35541,34.063234,-87.182761,Arley,AL,
35542,33.70083,-87.68965,Bankston,AL,
35543,34.213469,-87.686083,Bear Creek,AL,
35544,33.942877,-88.01567,Beaverton,AL,
35546,33.694485,-87.622563,Berry,AL,
35548,34.037702,-87.756315,Brilliant,AL,
35549,33.909252,-87.540328,Carbon Hill,AL,
35550,33.768033,-87.18406,Cordova,AL,
35552,34.010874,-88.16063,Detroit,AL,
35553,34.138682,-87.397431,Double Springs,AL,
35554,33.931546,-87.619397,Eldridge,AL,
35555,33.697397,-87.834647,Fayette,AL,
35563,33.967624,-87.90238,Guin,AL,
35564,34.267803,-87.860762,Hackleburg,AL,
35565,34.231423,-87.593811,Haleyville,AL,
35570,34.153413,-88.008521,Hamilton,AL,
35571,34.341664,-87.959023,Hodges,AL,
35572,34.118042,-87.26183,Houston,AL,
35574,33.574964,-88.05172,Kennedy,AL,
35575,34.052984,-87.539814,Lynn,AL,
35576,33.54013,-88.200003,Millport,AL,
35578,33.929859,-87.432449,Nauvoo,AL,
35579,33.700174,-87.368574,Oakman,AL,
35580,33.721307,-87.265773,Parrish,AL,
35581,34.347018,-87.715431,Phil Campbell,AL,
35582,34.451259,-88.112914,Red Bay,AL,
35585,34.384796,-87.712149,Spruce Pine,AL,
35586,33.8549,-88.150774,Sulligent,AL,
35587,33.84702,-87.437248,Townley,AL,
35592,33.761285,-88.097919,Vernon,AL,
35593,34.37116,-88.077422,Vina,AL,
35594,33.930256,-87.79716,Winfield,AL,
35601,34.589599,-86.98868,Decatur,AL,
35603,34.548417,-87.000389,Decatur,AL,
35610,34.951777,-87.272327,Anderson,AL,
35611,34.803604,-86.970733,Athens,AL,
35616,34.744188,-87.972445,Cherokee,AL,
35618,34.671866,-87.314255,Courtland,AL,
35619,34.452189,-87.053187,Danville,AL,
35620,34.915241,-86.910452,Elkmont,AL,
35621,34.347778,-86.704427,Eva,AL,
35622,34.347653,-86.913086,Falkville,AL,
35630,34.830547,-87.655985,Florence,AL,
35633,34.882471,-87.739778,Florence,AL,
35640,34.448206,-86.924235,Hartselle,AL,
35643,34.64763,-87.180379,Hillsboro,AL,
35645,34.901632,-87.508185,Killen,AL,
35646,34.710982,-87.522133,Leighton,AL,
35647,34.918364,-87.143396,Lester,AL,
35648,34.955924,-87.393519,Lexington,AL,
35650,34.505836,-87.222385,Moulton,AL,
35651,34.462969,-87.451453,Mount Hope,AL,
35652,34.849544,-87.323671,Rogersville,AL,
35653,34.506568,-87.725726,Russellville,AL,
35660,34.757829,-87.697057,Sheffield,AL,
35661,34.756136,-87.630443,Muscle Shoals,AL,
35670,34.499548,-86.800931,Somerville,AL,
35671,34.713037,-86.989152,Tanner,AL,
35672,34.649138,-87.426195,Town Creek,AL,
35673,34.591771,-87.09127,Trinity,AL,
35674,34.687432,-87.683259,Tuscumbia,AL,
35677,34.93568,-87.962412,Waterloo,AL,
35739,34.980447,-86.834612,Ardmore,AL,
35740,34.944638,-85.727681,Bridgeport,AL,
35741,34.716733,-86.468703,Brownsboro,AL,
35744,34.604558,-85.906729,Dutton,AL,
35745,34.913017,-86.171571,Estillfork,AL,
35746,34.82589,-85.984648,Fackler,AL,
35747,34.495902,-86.259041,Grant,AL,
35748,34.713964,-86.394028,Gurley,AL,
35749,34.82732,-86.749929,Harvest,AL,
35750,34.949627,-86.593484,Hazel Green,AL,
35751,34.798979,-86.233627,Hollytree,AL,
35752,34.730428,-85.953173,Hollywood,AL,
35754,34.499647,-86.612869,Laceys Spring,AL,
35755,34.497831,-86.10563,Langston,AL,
35758,34.713409,-86.750951,Triana,AL,
35759,34.861779,-86.578879,Meridianville,AL,
35760,34.549445,-86.3961,New Hope,AL,
35761,34.899991,-86.448742,New Market,AL,
35763,34.612859,-86.466577,Big Cove,AL,
35764,34.667122,-86.332562,Paint Rock,AL,
35765,34.688601,-85.803044,Pisgah,AL,
35766,34.840217,-86.250068,Princeton,AL,
35768,34.67227,-86.051336,Hytop,AL,
35771,34.543275,-85.994002,Section,AL,
35772,34.876885,-85.850803,Stevenson,AL,
35773,34.911644,-86.699951,Toney,AL,
35774,34.740065,-86.291264,Trenton,AL,
35775,34.538145,-86.678,Valhermoso Sprin,AL,
35776,34.668927,-86.22961,Woodville,AL,
35801,34.726866,-86.567318,Huntsville,AL,
35802,34.667922,-86.560347,Huntsville,AL,
35803,34.620506,-86.55096,Huntsville,AL,
35805,34.705943,-86.616493,Huntsville,AL,
35806,34.744765,-86.670411,Huntsville,AL,
35808,34.684525,-86.653821,Huntsville,AL,
35810,34.778378,-86.609063,Huntsville,AL,
35811,34.778949,-86.543786,Huntsville,AL,
35816,34.738864,-86.624948,Huntsville,AL,
35824,34.658321,-86.729486,Huntsville,AL,
35901,33.997248,-86.010279,Southside,AL,
35903,33.997057,-85.928724,Hokes Bluff,AL,
35904,34.021694,-86.049479,Gadsden,AL,
35905,33.956787,-85.927586,Glencoe,AL,
35950,34.273859,-86.206447,Albertville,AL,
35952,34.042916,-86.350879,Snead,AL,
35953,33.837366,-86.255167,Ashville,AL,
35954,34.029597,-86.096717,Attalla,AL,
35957,34.173686,-86.148003,Boaz,AL,
35958,34.945026,-85.632445,Bryant,AL,
35959,34.241662,-85.602567,Cedar Bluff,AL,
35960,34.111592,-85.609229,Centre,AL,
35961,34.267957,-85.861969,Collinsville,AL,
35962,34.258784,-86.030575,Crossville,AL,
35963,34.356838,-85.929161,Dawson,AL,
35966,34.807598,-85.708372,Flat Rock,AL,
35967,34.436792,-85.712394,Fort Payne,AL,
35971,34.437284,-85.928849,Fyffe,AL,
35972,33.997586,-86.234606,Gallant,AL,
35973,34.357324,-85.558893,Gaylesville,AL,
35974,34.343864,-86.040393,Geraldine,AL,
35975,34.435874,-86.040023,Groveoak,AL,
35976,34.32193,-86.305463,Guntersville,AL,
35978,34.618604,-85.727381,Henagar,AL,
35979,34.873247,-85.622507,Higdon,AL,
35980,34.190033,-86.317318,Horton,AL,
35981,34.735059,-85.641577,Ider,AL,
35983,34.191083,-85.77051,Leesburg,AL,
35984,34.587236,-85.577728,Mentone,AL,
35986,34.498884,-85.844605,Rainsville,AL,
35987,33.941679,-86.228929,Steele,AL,
35988,34.558962,-85.792128,Sylvania,AL,
35989,34.5697,-85.627208,Valley Head,AL,
36003,32.462462,-86.714938,Autaugaville,AL,
36004,31.786701,-85.239657,Eufaula,AL,
36005,31.836792,-85.799844,Banks,AL,
36006,32.610578,-86.716301,Billingsley,AL,
36009,31.570963,-86.274343,Brantley,AL,
36010,31.701324,-85.817668,Brundidge,AL,
36013,32.300891,-86.011241,Cecil,AL,
36016,31.887413,-85.450932,Clayton,AL,
36017,31.68521,-85.590419,Clio,AL,
36022,32.613405,-86.338211,Deatsville,AL,
36024,32.65419,-86.031614,Eclectic,AL,
36025,32.545378,-86.316134,Elmore,AL,
36026,32.813908,-86.105064,Equality,AL,
36027,31.905063,-85.165605,Eufaula,AL,
36028,31.506614,-86.366315,Dozier,AL,
36029,32.151607,-85.888329,Fitzpatrick,AL,
36030,31.85318,-86.786377,Forest Home,AL,
36031,32.28945,-85.700688,Fort Davis,AL,
36032,31.995979,-86.576142,Fort Deposit,AL,
36033,31.628662,-86.733965,Georgiana,AL,
36034,31.664143,-86.170972,Glenwood,AL,
36035,31.82497,-86.104851,Goshen,AL,
36036,32.019397,-86.129246,Grady,AL,
36037,31.810036,-86.622919,Greenville,AL,
36038,31.416909,-86.419836,Gantt,AL,
36039,32.312939,-85.883837,Hardaway,AL,
36040,32.195707,-86.654994,Hayneville,AL,
36041,31.928292,-86.297111,Highland Home,AL,
36042,31.878397,-86.398064,Honoraville,AL,
36043,32.224256,-86.393189,Hope Hull,AL,
36046,31.985423,-86.278534,Lapine,AL,
36047,32.086199,-86.488013,Letohatchee,AL,
36048,31.794262,-85.558062,Louisville,AL,
36049,31.70739,-86.256601,Luverne,AL,
36051,32.639373,-86.510138,Marbury,AL,
36052,32.128288,-86.041262,Mathews,AL,
36053,32.09552,-85.531523,Midway,AL,
36054,32.499485,-86.364125,Millbrook,AL,
36061,32.003459,-85.74773,Perote,AL,
36064,32.335705,-86.09589,Pike Road,AL,
36066,32.478695,-86.42997,Prattville,AL,
36067,32.471501,-86.483072,Prattville,AL,
36069,32.067745,-86.246329,Ramer,AL,
36071,31.755867,-86.348464,Rutledge,AL,
36075,32.383585,-85.91616,Shorter,AL,
36078,32.550997,-85.89781,Tallassee,AL,
36080,32.690019,-86.239334,Titus,AL,
36081,31.794471,-85.965493,Troy,AL,
36083,32.431623,-85.68606,Tuskegee,AL,
36088,32.417699,-85.714848,Tuskegee Institu,AL,
36089,32.166252,-85.678746,Union Springs,AL,
36091,32.759565,-86.543753,Verbena,AL,
36092,32.54509,-86.188039,Wetumpka,AL,
36104,32.373037,-86.308129,Montgomery,AL,
36105,32.32573,-86.310449,Montgomery,AL,
36106,32.354268,-86.267278,Montgomery,AL,
36107,32.380405,-86.279885,Montgomery,AL,
36108,32.341682,-86.352904,Montgomery,AL,
36109,32.383443,-86.243394,Montgomery,AL,
36110,32.421686,-86.274997,Montgomery,AL,
36111,32.337363,-86.271543,Montgomery,AL,
36113,32.388133,-86.355848,Maxwell A F B,AL,
36115,32.406814,-86.247327,Gunter Afs,AL,
36116,32.312943,-86.242056,Montgomery,AL,
36117,32.373568,-86.183299,Montgomery,AL,
36201,33.653896,-85.838152,Anniston,AL,
36203,33.596829,-85.83347,Oxford,AL,
36205,33.710168,-85.801467,Fort Mc Clellan,AL,
36206,33.719124,-85.838904,Anniston,AL,
36250,33.780785,-85.892447,Alexandria,AL,
36251,33.247363,-85.828976,Ashland,AL,
36255,33.217148,-85.710797,Cragford,AL,
36256,33.033471,-85.753831,Daviston,AL,
36258,33.457303,-85.679279,Delta,AL,
36260,33.603132,-85.96075,Eastaboga,AL,
36262,33.771732,-85.43814,Fruithurst,AL,
36263,33.462976,-85.334034,Graham,AL,
36264,33.611515,-85.588471,Heflin,AL,
36265,33.830966,-85.77518,Jacksonville,AL,
36266,33.328613,-85.734609,Lineville,AL,
36267,33.158959,-85.969001,Millerville,AL,
36268,33.540987,-85.936322,Munford,AL,
36269,33.752913,-85.378907,Muscadine,AL,
36270,33.440172,-85.505925,Newell,AL,
36271,33.778779,-86.025357,Ohatchee,AL,
36272,33.838946,-85.645997,Piedmont,AL,
36273,33.561627,-85.378604,Ranburne,AL,
36274,33.156443,-85.357854,Rock Mills,AL,
36276,33.149192,-85.551344,Wadley,AL,
36277,33.756286,-85.810666,Weaver,AL,
36278,33.301854,-85.473737,Wedowee,AL,
36279,33.863843,-85.915325,Wellington,AL,
36280,33.355453,-85.353768,Woodland,AL,
36301,31.202888,-85.418036,Taylor,AL,
36303,31.255239,-85.412462,Napier Field,AL,
36310,31.575479,-85.279044,Abbeville,AL,
36311,31.582996,-85.707716,Ariton,AL,
36312,31.1888,-85.253488,Ashford,AL,
36314,31.01318,-85.745634,Black,AL,
36316,31.173379,-85.910897,Chancellor,AL,
36317,31.602843,-85.482308,Clopton,AL,
36318,31.138758,-85.918224,Coffee Springs,AL,
36319,31.335235,-85.145488,Columbia,AL,
36320,31.098934,-85.375665,Cottonwood,AL,
36322,31.281091,-85.730473,Daleville,AL,
36323,31.41373,-86.077728,Elba,AL,
36330,31.340789,-85.842111,Enterprise,AL,
36340,31.041445,-85.884748,Geneva,AL,
36343,31.10019,-85.123412,Gordon,AL,
36344,31.08598,-85.719204,Hartford,AL,
36345,31.353406,-85.332277,Headland,AL,
36346,31.552392,-86.043083,Jack,AL,
36349,31.157528,-85.522327,Malvern,AL,
36350,31.36716,-85.513033,Midland City,AL,
36351,31.36898,-85.940386,New Brockton,AL,
36352,31.331064,-85.599229,Newton,AL,
36353,31.440295,-85.328741,Newville,AL,
36360,31.439069,-85.643629,Ozark,AL,
36362,31.348011,-85.721374,Fort Rucker,AL,
36370,31.131778,-85.238549,Pansey,AL,
36373,31.625627,-85.14584,Shorterville,AL,
36374,31.551588,-85.549578,Skipperville,AL,
36375,31.095558,-85.582954,Slocomb,AL,
36376,31.265618,-85.254385,Webb,AL,
36401,31.458009,-86.925771,Evergreen,AL,
36419,31.624266,-87.66746,Allen,AL,
36420,31.297142,-86.490468,Andalusia,AL,
36425,31.727324,-87.171912,Beatrice,AL,
36426,31.118926,-87.067325,East Brewton,AL,
36432,31.326113,-87.026754,Castleberry,AL,
36435,31.888851,-87.392558,Coy,AL,
36436,31.717167,-87.656929,Dickinson,AL,
36441,31.040233,-87.266365,Flomaton,AL,
36442,31.017194,-86.338528,Florala,AL,
36444,31.723815,-87.441237,Franklin,AL,
36445,31.423478,-87.381744,Frisco City,AL,
36446,31.790947,-87.708065,Fulton,AL,
36451,31.675502,-87.763571,Grove Hill,AL,
36453,31.262118,-86.069532,Kinston,AL,
36454,31.327261,-87.19671,Lenox,AL,
36456,31.54495,-86.735615,Mc Kenzie,AL,
36460,31.51533,-87.340993,Monroeville,AL,
36467,31.279861,-86.257105,Opp,AL,
36471,31.589953,-87.259984,Peterman,AL,
36473,31.30169,-87.319739,Range,AL,
36474,31.439931,-86.61209,Red Level,AL,
36475,31.425569,-87.172039,Repton,AL,
36477,31.104918,-86.067416,Samson,AL,
36480,31.313467,-87.570518,Uriah,AL,
36481,31.73443,-87.416184,Vredenburgh,AL,
36482,31.639453,-87.656502,Whatley,AL,
36483,31.148127,-86.56119,Wing,AL,
36502,31.057245,-87.487347,Atmore,AL,
36505,31.006817,-88.04274,Axis,AL,
36507,30.86354,-87.76444,Bay Minette,AL,
36509,30.407983,-88.250697,Bayou La Batre,AL,
36510,31.589072,-88.165294,Bigbee,AL,
36511,30.328883,-87.721355,Bon Secour,AL,
36515,31.322449,-87.837793,Carlton,AL,
36518,31.487638,-88.269887,Chatom,AL,
36521,30.991178,-88.131126,Chunchula,AL,
36522,31.042533,-88.254949,Citronelle,AL,
36523,30.418834,-88.168276,Coden,AL,
36524,31.78428,-88.071542,Coffeeville,AL,
36525,30.901267,-88.017414,Creola,AL,
36526,30.61972,-87.889522,Daphne,AL,
36527,30.695852,-87.88668,Spanish Fort,AL,
36528,30.252057,-88.109644,Dauphin Island,AL,
36529,31.184892,-88.32731,Deer Park,AL,
36530,30.394239,-87.58896,Elberta,AL,
36532,30.50116,-87.883546,Fairhope,AL,
36535,30.400664,-87.685737,Foley,AL,
36538,31.64684,-88.133185,Frankville,AL,
36539,31.348843,-88.376597,Fruitdale,AL,
36540,31.425822,-87.682176,Gainestown,AL,
36541,30.498288,-88.32825,Grand Bay,AL,
36542,30.268954,-87.712795,Fort Morgan,AL,
36544,30.480241,-88.239563,Irvington,AL,
36545,31.513098,-87.867192,Jackson,AL,
36548,31.491021,-87.968672,Leroy,AL,
36549,30.39724,-87.474452,Lillian,AL,
36550,31.22459,-87.754796,Little River,AL,
36551,30.617964,-87.75624,Loxley,AL,
36553,31.236108,-88.051102,Mc Intosh,AL,
36555,30.394497,-87.785781,Magnolia Springs,AL,
36558,31.626871,-88.355872,Millry,AL,
36560,31.097375,-88.035044,Mount Vernon,AL,
36561,30.290596,-87.555888,Orange Beach,AL,
36562,30.98058,-87.628374,Perdido,AL,
36567,30.561608,-87.637268,Robertsdale,AL,
36569,31.533028,-88.052094,Saint Stephens,AL,
36570,31.654667,-87.959618,Salitpa,AL,
36571,30.833197,-88.093387,Saraland,AL,
36572,30.851628,-88.053312,Satsuma,AL,
36574,30.504806,-87.465938,Seminole,AL,
36575,30.754408,-88.266705,Semmes,AL,
36576,30.522237,-87.745676,Silverhill,AL,
36579,31.01293,-87.863323,Stockton,AL,
36580,30.475225,-87.699183,Summerdale,AL,
36582,30.544374,-88.180748,Theodore,AL,
36583,31.373742,-88.266828,Tibbie,AL,
36584,31.25841,-88.386466,Vinegar Bend,AL,
36585,31.410205,-88.070519,Wagarville,AL,
36586,31.626166,-87.835355,Walker Springs,AL,
36587,30.813745,-88.333196,Wilmer,AL,
36602,30.688828,-88.045308,Mobile,AL,
36603,30.692141,-88.05622,Mobile,AL,
36604,30.681963,-88.067804,Mobile,AL,
36605,30.634117,-88.084646,Mobile,AL,
36606,30.672899,-88.100909,Mobile,AL,
36607,30.697486,-88.1029,Mobile,AL,
36608,30.69636,-88.187784,Mobile,AL,
36609,30.660527,-88.161806,Mobile,AL,
36610,30.737846,-88.083761,Prichard,AL,
36611,30.766821,-88.084973,Chickasaw,AL,
36612,30.751844,-88.11311,Mobile,AL,
36613,30.795074,-88.182311,Eight Mile,AL,
36615,30.631199,-88.068871,Brookley Field,AL,
36617,30.714522,-88.091796,Mobile,AL,
36618,30.732178,-88.175753,Mobile,AL,
36619,30.592803,-88.194645,Mobile,AL,
36693,30.631076,-88.158843,Mobile,AL,
36695,30.647431,-88.229245,Mobile,AL,
36701,32.419719,-87.024527,Selma,AL,
36703,32.415553,-87.013546,Selma,AL,
36720,32.144889,-87.342503,Alberta,AL,
36722,32.066784,-87.559691,Arlington,AL,
36726,32.004732,-87.295049,Camden,AL,
36727,31.963512,-88.006072,Campbell,AL,
36728,32.182,-87.483623,Catherine,AL,
36732,32.490792,-87.839669,Demopolis,AL,
36736,32.067209,-87.745356,Dixons Mills,AL,
36738,32.423259,-87.618079,Faunsdale,AL,
36740,32.644661,-87.881676,Forkland,AL,
36742,32.529771,-87.698542,Gallion,AL,
36744,32.716721,-87.590494,Greensboro,AL,
36748,32.305343,-87.795358,Linden,AL,
36749,32.608515,-86.889266,Jones,AL,
36750,32.804507,-86.871704,Maplesville,AL,
36751,31.850365,-87.568224,Lower Peach Tree,AL,
36752,32.300292,-86.609868,Burkville,AL,
36754,32.141931,-87.699815,Magnolia,AL,
36756,32.646301,-87.331437,Marion,AL,
36758,32.617608,-86.947531,Plantersville,AL,
36759,32.426589,-87.270181,Marion Junction,AL,
36761,32.095387,-86.92497,Boys Ranch,AL,
36762,31.967305,-87.972897,Morvin,AL,
36765,32.551465,-87.561472,Newbern,AL,
36767,32.294859,-87.221368,Orrville,AL,
36768,31.926522,-87.004667,Pine Apple,AL,
36769,31.973546,-87.577086,Pine Hill,AL,
36771,32.084762,-87.448723,Prairie,AL,
36773,32.300242,-87.369345,Safford,AL,
36775,32.284358,-86.991959,Sardis,AL,
36776,32.757796,-87.740201,Sawyerville,AL,
36779,32.654376,-87.141599,Sprott,AL,
36782,32.077272,-87.922755,Sweet Water,AL,
36783,32.253776,-87.597438,Thomaston,AL,
36784,31.906728,-87.759842,Thomasville,AL,
36785,32.281924,-86.859867,Benton,AL,
36786,32.446966,-87.493398,Uniontown,AL,
36790,32.709631,-86.886848,Stanton,AL,
36792,32.888834,-86.90701,Randolph,AL,
36793,32.864558,-86.956708,Lawley,AL,
36801,32.627771,-85.358629,Opelika,AL,
36830,32.602043,-85.489001,Auburn,AL,
36850,32.782749,-85.64738,Camp Hill,AL,
36852,32.803194,-85.215791,Cusseta,AL,
36853,32.82239,-85.770395,Dadeville,AL,
36854,32.811349,-85.174911,Valley,AL,
36855,33.042408,-85.324264,Five Points,AL,
36858,32.284531,-85.302882,Hatchechubbee,AL,
36860,32.245429,-85.395903,Hurtsboro,AL,
36861,32.879698,-85.848662,Jacksons Gap,AL,
36862,32.925237,-85.442563,Lafayette,AL,
36863,32.861609,-85.21608,Lanett,AL,
36866,32.543727,-85.68707,Notasulga,AL,
36867,32.407816,-85.095082,Phenix City,AL,
36869,32.470647,-85.018118,Phenix City,AL,
36871,32.173346,-85.131248,Pittsview,AL,
36874,32.621157,-85.183966,Salem,AL,
36875,32.305339,-85.167733,Seale,AL,
36877,32.520072,-85.100027,Smiths,AL,
36879,32.763167,-85.514372,Waverly,AL,
36904,32.082906,-88.206391,Butler,AL,
36907,32.410973,-88.361083,Cuba,AL,
36908,31.866602,-88.326514,Gilbertown,AL,
36910,32.244174,-88.233356,Jachin,AL,
36912,32.217722,-88.323419,Lisman,AL,
36915,32.012165,-88.345798,Needham,AL,
36916,32.226245,-88.0931,Pennington,AL,
36919,31.766754,-88.309149,Silas,AL,
36921,31.93153,-88.31794,Toxey,AL,
36922,32.334063,-88.297114,Ward,AL,
36925,32.472765,-88.268304,York,AL,
98791,51.938901,-176.310048,98791,AK,
99501,61.211571,-149.876077,Anchorage,AK,
99502,61.096163,-150.093943,Anchorage,AK,
99503,61.189953,-149.893844,Anchorage,AK,
99504,61.203696,-149.74467,Anchorage,AK,
99505,61.275256,-149.675454,Fort Richardson,AK,
99506,61.251531,-149.812667,Elmendorf Afb,AK,
99507,61.153543,-149.828912,Anchorage,AK,
99508,61.205959,-149.810085,Anchorage,AK,
99515,61.119381,-149.897401,Anchorage,AK,
99516,61.10541,-149.779998,Anchorage,AK,
99517,61.190136,-149.936111,Anchorage,AK,
99518,61.154862,-149.886571,Anchorage,AK,
99549,56.964333,-158.566367,Port Heiden,AK,
99551,60.891854,-161.39233,Akiachak,AK,
99552,60.890632,-161.199325,Akiak,AK,
99553,54.143012,-165.785368,Akutan,AK,
99554,62.746967,-164.60228,Alakanuk,AK,
99555,59.269688,-158.619882,Aleknagik,AK,
99556,59.788818,-151.732933,Nikolaevsk,AK,
99557,61.691648,-157.758502,Chuathbaluk,AK,
99558,62.830913,-160.130441,Anvik,AK,
99559,60.832389,-161.824053,Atmautluak,AK,
99561,60.153746,-164.210294,Chefornak,AK,
99563,61.583982,-164.776457,Chevak,AK,
99564,56.301639,-158.415696,Chignik,AK,
99565,56.251277,-158.673528,Chignik Lagoon,AK,
99567,61.409802,-149.453736,Chugiak,AK,
99568,60.201603,-151.422628,Clam Gulch,AK,
99569,58.84921,-158.451241,Clarks Point,AK,
99571,55.610952,-161.942941,Nelson Lagoon,AK,
99572,60.476692,-149.823514,Cooper Landing,AK,
99573,61.91581,-144.97793,Copper Center,AK,
99574,60.102558,-147.943316,Chenega Bay,AK,
99575,61.818072,-158.002483,Crooked Creek,AK,
99576,59.059279,-158.973533,Koliganek,AK,
99577,61.311357,-149.508515,Eagle River,AK,
99578,60.215058,-162.032341,Eek,AK,
99579,58.206174,-157.342202,Egegik,AK,
99580,59.362792,-157.478211,Ekwok,AK,
99581,62.827404,-164.131298,Emmonak,AK,
99583,54.841028,-163.436845,False Pass,AK,
99585,61.837087,-161.7394,Marshall,AK,
99586,62.654744,-143.568393,Slana,AK,
99588,62.103895,-145.661684,Glennallen,AK,
99589,59.085008,-161.587146,Goodnews Bay,AK,
99590,63.372013,-159.404907,Grayling,AK,
99591,56.60324,-169.547257,Saint George Isl,AK,
99602,62.192584,-159.825092,Holy Cross,AK,
99603,59.665495,-151.462644,Port Graham,AK,
99604,61.537157,-165.891045,Hooper Bay,AK,
99606,59.564836,-155.462556,Kokhanok,AK,
99607,61.541006,-160.3261,Kalskag,AK,
99610,60.316365,-151.28958,Kasilof,AK,
99611,60.614467,-151.254556,Kenai,AK,
99612,55.062848,-162.305561,King Cove,AK,
99613,58.724264,-156.641603,Igiugig,AK,
99614,59.923204,-164.101013,Kipnuk,AK,
99615,57.781967,-152.500169,Akhiok,AK,
99620,63.029471,-163.554153,Kotlik,AK,
99621,60.771814,-161.38849,Kwethluk,AK,
99622,59.881022,-162.984938,Kwigillingok,AK,
99625,59.371395,-154.976815,Levelock,AK,
99626,61.51377,-160.359966,Lower Kalskag,AK,
99627,62.967153,-155.585153,Mc Grath,AK,
99628,59.009559,-158.989699,Manokotak,AK,
99630,60.365679,-166.283583,Mekoryuk,AK,
99631,60.85852,-149.255911,Moose Pass,AK,
99632,62.158913,-163.883822,Mountain Village,AK,
99633,58.885699,-156.705405,Naknek,AK,
99634,60.663758,-161.738144,Napakiak,AK,
99636,59.593533,-157.297205,New Stuyahok,AK,
99638,52.988337,-168.788427,Nikolski,AK,
99639,60.010833,-151.639604,Ninilchik,AK,
99640,60.030837,-154.731675,Nondalton,AK,
99645,61.613814,-149.065323,Butte,AK,
99647,59.92238,-153.821856,Pedro Bay,AK,
99648,55.945289,-159.259333,Perryville,AK,
99649,57.595193,-157.449272,Pilot Point,AK,
99650,61.946159,-162.874716,Pilot Station,AK,
99651,58.63364,-162.043201,Platinum,AK,
99653,60.636416,-154.433803,Port Alsworth,AK,
99654,61.592349,-149.395875,Wasilla,AK,
99655,59.738057,-161.874938,Quinhagak,AK,
99656,61.735389,-157.195969,Red Devil,AK,
99657,61.591302,-161.558413,Russian Mission,AK,
99658,62.054106,-163.205263,Saint Marys,AK,
99659,63.47759,-162.109141,Saint Michael,AK,
99660,57.178697,-170.293408,Saint Paul Islan,AK,
99661,55.319236,-160.491435,Sand Point,AK,
99662,61.845019,-165.581945,Scammon Bay,AK,
99664,60.132874,-149.39849,Seward,AK,
99665,62.661092,-159.52816,Shageluk,AK,
99668,61.634555,-157.118284,Sleetmute,AK,
99669,60.481778,-151.13582,Soldotna,AK,
99670,58.736221,-156.850289,South Naknek,AK,
99671,63.478468,-162.227355,Stebbins,AK,
99672,60.520373,-150.849792,Sterling,AK,
99676,62.260516,-150.110097,Talkeetna,AK,
99679,61.108848,-160.938924,Tuluksak,AK,
99681,60.539322,-165.097464,Tununak,AK,
99682,61.117929,-151.348495,Tyonek,AK,
99683,61.441361,-150.284455,Trapper Creek,AK,
99684,63.883478,-160.788365,Unalakleet,AK,
99685,53.887114,-166.519855,Unalaska,AK,
99686,60.895044,-146.195628,Valdez,AK,
99687,61.578032,-149.533003,Wasilla,AK,
99688,61.771511,-150.188891,Willow,AK,
99689,59.620211,-139.778858,Yakutat,AK,
99691,63.001603,-154.381247,Nikolai,AK,
99692,53.362757,-167.510656,Dutch Harbor,AK,
99701,64.840238,-147.710431,Coldfoot,AK,
99702,64.67352,-147.08051,Eielson Afb,AK,
99703,64.828303,-147.655673,Fort Wainwright,AK,
99704,64.418121,-149.139885,Clear,AK,
99705,64.78049,-147.369353,North Pole,AK,
99709,64.85437,-147.846917,Fairbanks,AK,
99712,64.910879,-147.510479,Fairbanks,AK,
99714,64.50905,-146.952974,Salcha,AK,
99720,66.543197,-152.712155,Allakaket,AK,
99721,68.11878,-151.679005,Anaktuvuk Pass,AK,
99722,68.077395,-145.423115,Arctic Village,AK,
99723,71.234637,-156.817409,Barrow,AK,
99724,66.33883,-147.279803,Beaver,AK,
99726,67.100495,-151.062414,Bettles Field,AK,
99727,65.981052,-161.131676,Buckland,AK,
99729,63.395458,-148.89735,Cantwell,AK,
99730,65.468058,-144.74886,Central,AK,
99733,65.824542,-144.08262,Circle,AK,
99734,70.070057,-148.559636,Prudhoe Bay,AK,
99736,66.062265,-162.711951,Deering,AK,
99737,64.005426,-145.613611,Dot Lake,AK,
99739,64.621662,-162.260371,Elim,AK,
99740,66.520744,-145.306439,Fort Yukon,AK,
99741,64.760784,-156.797701,Galena,AK,
99742,63.776555,-171.701685,Gambell,AK,
99743,63.917123,-149.011128,Healy,AK,
99744,64.300693,-149.1718,Anderson,AK,
99745,66.038246,-154.26443,Hughes,AK,
99746,65.689918,-156.291976,Huslia,AK,
99747,70.042889,-143.631329,Kaktovik,AK,
99748,64.330452,-158.724251,Kaltag,AK,
99749,67.18026,-158.152204,Kiana,AK,
99750,67.665859,-163.733617,Kivalina,AK,
99751,66.912253,-157.066864,Kobuk,AK,
99752,66.846459,-162.126493,Kotzebue,AK,
99753,64.931668,-161.149957,Koyuk,AK,
99755,63.516075,-149.539532,Denali National,AK,
99756,65.02058,-150.573267,Manley Hot Sprin,AK,
99757,63.903884,-152.430081,Lake Minchumina,AK,
99758,65.058399,-149.691186,Minto,AK,
99759,69.705626,-162.906148,Point Lay,AK,
99760,64.557656,-149.086744,Nenana,AK,
99761,66.97553,-160.509453,Noatak,AK,
99762,64.505775,-165.310667,Golovin,AK,
99763,66.836353,-161.044132,Noorvik,AK,
99765,64.778024,-157.991353,Nulato,AK,
99766,68.312058,-166.72618,Point Hope,AK,
99767,65.383627,-150.011201,Rampart,AK,
99768,64.720062,-155.503872,Ruby,AK,
99769,63.679737,-170.470908,Savoonga,AK,
99770,65.713537,-158.534287,Selawik,AK,
99771,64.375498,-161.174589,Shaktoolik,AK,
99772,66.230562,-166.137276,Shishmaref,AK,
99773,66.958141,-157.613496,Shungnak,AK,
99774,65.995894,-149.118286,Stevens Village,AK,
99777,65.156483,-152.103747,Tanana,AK,
99778,65.240164,-166.3833,Teller,AK,
99780,63.435022,-142.523046,Border,AK,
99781,67.010446,-146.413723,Venetie,AK,
99782,70.620064,-160.012532,Wainwright,AK,
99783,65.688212,-168.520521,Wales,AK,
99784,64.702791,-163.42185,White Mountain,AK,
99785,65.334187,-166.478578,Brevig Mission,AK,
99786,67.46951,-156.455652,Ambler,AK,
99788,66.719,-143.638121,Chalkyitsik,AK,
99789,70.192737,-150.997119,Nuiqsut,AK,
99801,58.362767,-134.529429,Juneau,AK,
99820,57.569832,-134.371052,Angoon,AK,
99824,58.275597,-134.395041,Douglas,AK,
99826,58.42835,-135.761542,Gustavus,AK,
99827,59.251886,-135.542032,Haines,AK,
99829,58.032237,-135.558435,Hoonah,AK,
99833,56.827134,-133.160683,Petersburg,AK,
99835,57.051436,-135.316569,Sitka,AK,
99840,59.468471,-135.301794,Skagway,AK,
99901,55.372028,-131.683175,Ketchikan,AK,
99919,55.66086,-132.513815,Thorne Bay,AK,
99921,55.47317,-133.117081,Craig,AK,
99922,55.137406,-132.633175,Hydaburg,AK,
99923,55.925867,-130.124915,Hyder,AK,
99925,55.552611,-133.055503,Klawock,AK,
99926,55.121491,-131.579001,Metlakatla,AK,
99927,56.307858,-133.376372,Point Baker,AK,
99929,56.433524,-132.352918,Wrangell,AK,
99950,55.942471,-133.18479,Ketchikan,AK,
85003,33.451095,-112.077428,Phoenix,AZ,
85004,33.455708,-112.068584,Phoenix,AZ,
85006,33.465016,-112.047357,Phoenix,AZ,
85007,33.452298,-112.089326,Phoenix,AZ,
85008,33.466457,-111.998381,Phoenix,AZ,
85009,33.456373,-112.128368,Phoenix,AZ,
85012,33.509744,-112.067816,Phoenix,AZ,
85013,33.508493,-112.082657,Phoenix,AZ,
85014,33.510263,-112.05557,Phoenix,AZ,
85015,33.508164,-112.101064,Phoenix,AZ,
85016,33.502117,-112.030496,Phoenix,AZ,
85017,33.515263,-112.121232,Phoenix,AZ,
85018,33.495796,-111.988259,Phoenix,AZ,
85019,33.512284,-112.141681,Phoenix,AZ,
85020,33.562281,-112.055888,Phoenix,AZ,
85021,33.559965,-112.092686,Phoenix,AZ,
85022,33.631513,-112.052008,Phoenix,AZ,
85023,33.632383,-112.111838,Phoenix,AZ,
85024,33.661664,-112.036956,Phoenix,AZ,
85027,33.667157,-112.102723,New River Stage,AZ,
85028,33.585115,-112.008724,Phoenix,AZ,
85029,33.596133,-112.119913,Phoenix,AZ,
85031,33.493909,-112.16963,Phoenix,AZ,
85032,33.623807,-112.004369,Phoenix,AZ,
85033,33.494426,-112.213185,Phoenix,AZ,
85034,33.441251,-112.042135,Phoenix,AZ,
85035,33.472353,-112.183177,Phoenix,AZ,
85037,33.491278,-112.246763,Phoenix,AZ,
85039,33.495362,-112.288573,Phoenix,AZ,
85040,33.390475,-112.03126,Phoenix,AZ,
85041,33.388882,-112.095437,Phoenix,AZ,
85043,33.449056,-112.197245,Phoenix,AZ,
85044,33.329124,-111.9943,Phoenix,AZ,
85051,33.559113,-112.133168,Phoenix,AZ,
85201,33.43174,-111.846931,Mesa,AZ,
85202,33.385095,-111.872429,Mesa,AZ,
85203,33.436952,-111.805697,Mesa,AZ,
85204,33.399168,-111.789554,Mesa,AZ,
85205,33.43685,-111.712939,Mesa,AZ,
85206,33.402603,-111.724223,Mesa,AZ,
85207,33.432073,-111.64256,Mesa,AZ,
85208,33.398416,-111.651297,Mesa,AZ,
85210,33.38867,-111.842757,Mesa,AZ,
85213,33.436688,-111.773114,Mesa,AZ,
85219,33.360787,-111.51331,Gold Canyon,AZ,
85220,33.415211,-111.571818,Apache Junction,AZ,
85222,32.892667,-111.756093,Eleven Mile Corn,AZ,
85224,33.330091,-111.863156,Chandler,AZ,
85225,33.310505,-111.823881,Chandler,AZ,
85226,33.30917,-111.919827,Chandler,AZ,
85228,32.957399,-111.534378,Coolidge,AZ,
85231,32.750929,-111.583275,Eloy,AZ,
85232,32.996881,-111.361234,Florence,AZ,
85234,33.352746,-111.780876,Gilbert,AZ,
85236,33.302382,-111.696926,Higley,AZ,
85237,33.059443,-110.91227,Kearny,AZ,
85239,32.987379,-112.075228,Mobile,AZ,
85240,33.310289,-111.668801,Williams Afb,AZ,
85242,33.238577,-111.643596,Arizona Boys Ran,AZ,
85247,33.097699,-111.775162,Sacaton,AZ,
85248,33.223056,-111.866899,Sun Lakes,AZ,
85249,33.241384,-111.774486,Chandler,AZ,
85250,33.521767,-111.904926,Scottsdale,AZ,
85251,33.493559,-111.916697,Scottsdale,AZ,
85253,33.549439,-111.956546,Paradise Valley,AZ,
85254,33.616476,-111.955422,Scottsdale,AZ,
85255,33.696801,-111.889213,Scottsdale,AZ,
85256,33.485793,-111.85333,Scottsdale,AZ,
85257,33.46693,-111.915129,Scottsdale,AZ,
85258,33.564747,-111.893067,Scottsdale,AZ,
85259,33.587943,-111.840438,Scottsdale,AZ,
85260,33.601323,-111.88671,Scottsdale,AZ,
85262,33.77524,-111.779135,Scottsdale,AZ,
85264,33.611807,-111.68062,Fort Mcdowell,AZ,
85268,33.608489,-111.723685,Fountain Hills,AZ,
85272,32.882321,-111.965987,Stanfield,AZ,
85273,33.288716,-111.09846,Superior,AZ,
85281,33.422675,-111.926144,Tempe,AZ,
85282,33.391669,-111.924896,Tempe,AZ,
85283,33.366524,-111.93122,Tempe,AZ,
85284,33.336302,-111.919696,Tempe,AZ,
85292,33.00572,-110.772682,Winkelman,AZ,
85301,33.531122,-112.176703,Glendale,AZ,
85302,33.567487,-112.175289,Glendale,AZ,
85303,33.526215,-112.214937,Glendale,AZ,
85304,33.594289,-112.174575,Glendale,AZ,
85305,33.529103,-112.248232,Glendale,AZ,
85306,33.623882,-112.177563,Glendale,AZ,
85307,33.534879,-112.326735,Luke Afb,AZ,
85308,33.653924,-112.169391,Glendale,AZ,
85309,33.539993,-112.356186,Luke Afb,AZ,
85310,33.704726,-112.164131,Glendale,AZ,
85321,32.373485,-112.858681,Why,AZ,
85322,33.313317,-112.789058,Arlington,AZ,
85323,33.432114,-112.343754,Avondale,AZ,
85324,34.073197,-112.130956,Rock Springs,AZ,
85326,33.38896,-112.607728,Buckeye,AZ,
85328,33.614886,-114.512204,Cibola,AZ,
85331,33.821896,-112.015106,Cave Creek,AZ,
85332,34.176425,-112.76801,Congress,AZ,
85333,32.867886,-113.463126,Dateland,AZ,
85335,33.608153,-112.324147,El Mirage,AZ,
85337,32.93059,-112.746832,Gila Bend,AZ,
85338,33.436809,-112.383385,Goodyear,AZ,
85339,33.343572,-112.171618,Laveen,AZ,
85340,33.494127,-112.380497,Litchfield Park,AZ,
85342,33.772993,-112.548331,Morristown,AZ,
85343,33.34848,-112.646662,Palo Verde,AZ,
85344,34.0254,-114.266342,Empire Landing,AZ,
85345,33.576135,-112.234424,Peoria,AZ,
85347,32.936635,-113.564287,Roll,AZ,
85348,33.748141,-113.571459,Salome,AZ,
85350,32.563398,-114.7127,Somerton,AZ,
85351,33.606104,-112.279701,Sun City,AZ,
85353,33.434686,-112.277444,Tolleson,AZ,
85354,33.422797,-112.952785,Tonopah,AZ,
85355,33.567285,-112.43869,Waddell,AZ,
85356,32.749251,-114.176616,Wellton,AZ,
85361,33.726425,-112.446578,Wittmann,AZ,
85362,34.414076,-112.62166,Yarnell,AZ,
85363,33.590751,-112.301305,Youngtown,AZ,
85364,32.701507,-114.642362,Yuma,AZ,
85365,32.671352,-114.548633,Yuma Proving Gro,AZ,
85373,33.658756,-112.321397,Sun City,AZ,
85374,33.630028,-112.33143,Surprise,AZ,
85375,33.662576,-112.255434,Sun City West,AZ,
85381,33.604761,-112.223723,Peoria,AZ,
85382,33.63083,-112.207177,Peoria,AZ,
85390,33.911282,-112.738973,Wickenburg,AZ,
85501,33.402426,-110.789247,Globe,AZ,
85530,33.126549,-110.11702,Bylas,AZ,
85533,33.132343,-109.246199,Clifton,AZ,
85534,32.793976,-109.129575,Franklin,AZ,
85535,33.028629,-109.953682,Eden,AZ,
85539,33.431928,-110.881182,Miami,AZ,
85540,33.043593,-109.311517,Morenci,AZ,
85541,34.219779,-111.287774,Payson,AZ,
85542,33.478874,-110.37252,Peridot,AZ,
85543,32.909661,-109.856009,Pima,AZ,
85544,34.390915,-111.473483,Strawberry,AZ,
85545,33.635753,-110.974884,Roosevelt,AZ,
85546,32.829491,-109.626641,Safford,AZ,
85550,33.310643,-110.395323,San Carlos,AZ,
85552,32.819902,-109.730245,Thatcher,AZ,
85602,31.98826,-110.294113,Benson,AZ,
85603,31.408557,-109.911736,Bisbee,AZ,
85606,32.097891,-109.92393,Cochise,AZ,
85607,31.35111,-109.544698,Douglas,AZ,
85610,31.713891,-109.619277,Elfrida,AZ,
85611,31.66002,-110.611403,Elgin,AZ,
85613,31.558735,-110.344131,Fort Huachuca,AZ,
85614,31.854271,-111.000253,Green Valley,AZ,
85615,31.403545,-110.204728,Hereford,AZ,
85616,31.663896,-110.333414,Huachuca City,AZ,
85617,31.502969,-109.630971,Mc Neal,AZ,
85618,32.723875,-110.643961,Mammoth,AZ,
85621,31.376969,-110.943508,Nogales,AZ,
85623,32.600506,-110.796126,Oracle,AZ,
85624,31.535317,-110.696774,Patagonia,AZ,
85625,31.966608,-109.795032,Pearce,AZ,
85629,31.945169,-111.000154,Sahuarita,AZ,
85630,31.897251,-110.215377,Saint David,AZ,
85631,32.695831,-110.656788,San Manuel,AZ,
85632,32.208167,-109.367152,Portal,AZ,
85634,32.031572,-111.922207,Pisinemo,AZ,
85635,31.536467,-110.266565,Sierra Vista,AZ,
85637,31.866154,-110.724418,Sonoita,AZ,
85638,31.721598,-110.058449,Tombstone,AZ,
85640,31.594194,-111.039693,Amado,AZ,
85641,32.035926,-110.88375,Vail,AZ,
85643,32.372977,-109.863111,Willcox,AZ,
85645,31.643759,-111.072233,Amado,AZ,
85653,32.404749,-111.273621,Marana,AZ,
85701,32.213873,-110.969445,Tucson,AZ,
85704,32.329175,-110.984593,Casas Adobes,AZ,
85705,32.269088,-110.984536,Tucson,AZ,
85706,32.139172,-110.945127,Tucson,AZ,
85708,32.179989,-110.869283,Tucson,AZ,
85710,32.213813,-110.824046,Tucson,AZ,
85711,32.212729,-110.882892,Tucson,AZ,
85712,32.250043,-110.886919,Tucson,AZ,
85713,32.194065,-110.973896,Tucson,AZ,
85714,32.170657,-110.971891,Tucson,AZ,
85715,32.269213,-110.834837,Tucson,AZ,
85716,32.246815,-110.922176,Tucson,AZ,
85718,32.311154,-110.917882,Tucson,AZ,
85719,32.247426,-110.949142,Tucson,AZ,
85730,32.180951,-110.81904,Tucson,AZ,
85735,32.057796,-111.260758,Tucson,AZ,
85736,31.667909,-111.317842,Tucson,AZ,
85737,32.431679,-110.954463,Oro Valley,AZ,
85741,32.347215,-111.041873,Tucson,AZ,
85743,32.33655,-111.177071,Tucson,AZ,
85745,32.243359,-111.017907,Tucson,AZ,
85746,32.142244,-111.050569,Tucson,AZ,
85747,32.071142,-110.667337,Tucson,AZ,
85748,32.214981,-110.775765,Tucson,AZ,
85749,32.273285,-110.765829,Tucson,AZ,
85901,34.060117,-110.054633,Show Low,AZ,
85920,33.827878,-109.12829,Alpine,AZ,
85922,33.651245,-109.06849,Blue,AZ,
85924,34.445787,-109.674096,Concho,AZ,
85925,33.954571,-109.246933,Eagar,AZ,
85928,34.4163,-110.568647,Heber,AZ,
85929,34.166224,-109.986878,Lakeside,AZ,
85935,34.117459,-109.919668,Pinetop,AZ,
85936,34.501008,-109.379617,Saint Johns,AZ,
85937,34.495859,-110.080742,Snowflake,AZ,
85938,34.119333,-109.304066,Springerville,AZ,
86001,35.185911,-111.661979,Flagstaff,AZ,
86004,35.225736,-111.574109,Flagstaff,AZ,
86021,36.976266,-112.952427,Colorado City,AZ,
86022,36.904397,-112.497864,Fredonia,AZ,
86025,34.908451,-110.143412,Holbrook,AZ,
86030,36.211141,-110.566107,Hotevilla,AZ,
86033,36.688327,-110.265229,Kayenta,AZ,
86034,35.808206,-110.284461,Keams Canyon,AZ,
86035,35.336528,-110.992651,Leupp,AZ,
86036,36.956943,-111.558166,Marble Canyon,AZ,
86038,34.916896,-111.454914,Mormon Lake,AZ,
86039,35.579084,-110.368805,Kykotsmovi Villa,AZ,
86040,36.896625,-111.43847,Greenehaven,AZ,
86042,35.811812,-110.51114,Polacca,AZ,
86043,35.903782,-110.6472,Second Mesa,AZ,
86044,35.934555,-110.882042,Tonalea,AZ,
86045,36.103729,-111.268566,Tuba City,AZ,
86046,35.543398,-112.17075,Williams,AZ,
86047,35.16078,-110.511382,Winslow,AZ,
86053,36.484798,-111.136973,Kaibito,AZ,
86054,36.61594,-110.647743,Shonto,AZ,
86301,34.629909,-113.022459,Prescott,AZ,
86303,34.558577,-112.473459,Groom Creek,AZ,
86314,34.601934,-112.326378,Prescott Valley,AZ,
86320,35.214998,-112.502681,Ash Fork,AZ,
86321,34.578484,-113.175535,Bagdad,AZ,
86322,34.569733,-111.855131,Camp Verde,AZ,
86323,34.775739,-112.473099,Chino Valley,AZ,
86324,34.747793,-112.033417,Clarkdale,AZ,
86325,34.725593,-111.908556,Cornville,AZ,
86326,34.705547,-112.009099,Cottonwood,AZ,
86327,34.536753,-112.256665,Dewey,AZ,
86332,34.454149,-112.896641,Kirkland,AZ,
86333,34.365535,-112.129551,Mayer,AZ,
86334,35.03129,-112.544105,Paulden,AZ,
86335,34.63799,-111.784222,Rimrock,AZ,
86336,34.826645,-111.750627,Sedona,AZ,
86337,35.321246,-112.954805,Seligman,AZ,
86343,34.224062,-112.333971,Crown King,AZ,
86401,35.258379,-114.05689,Kingman,AZ,
86403,34.492879,-114.308083,Desert Hills,AZ,
86412,35.540732,-113.295324,Hualapai,AZ,
86430,35.014832,-114.588816,Bullhead City,AZ,
86432,36.866524,-113.913693,Littlefield,AZ,
86434,35.537795,-113.420199,Peach Springs,AZ,
86435,36.224157,-112.693212,Supai,AZ,
86436,34.778388,-114.481666,Topock,AZ,
86440,34.892942,-114.595115,Mohave Valley,AZ,
86441,35.774789,-114.547771,Dolan Springs,AZ,
86442,35.106001,-114.594737,Bullhead City,AZ,
86444,35.813733,-114.327696,Meadview,AZ,
86502,35.143044,-109.37389,Chambers,AZ,
86503,36.130367,-109.603693,Chinle,AZ,
86505,35.651844,-109.283168,Ganado,AZ,
86507,36.418111,-109.244614,Lukachukai,AZ,
86509,34.817202,-109.396217,Navajo,AZ,
86510,36.100243,-110.221077,Pinon,AZ,
86514,36.779694,-109.359039,Teec Nos Pos,AZ,
86535,36.777286,-109.861001,Dennehotso,AZ,
86538,36.408259,-109.634021,Many Farms,AZ,
86556,36.307075,-109.217627,Tsaile,AZ,
71601,34.215405,-91.995812,North Cedar,AR,
71602,34.257001,-92.089718,Dollarway,AR,
71603,34.189745,-92.044786,Pine Bluff,AR,
71630,33.614328,-91.232529,Arkansas City,AR,
71631,33.549665,-92.260386,Banks,AR,
71635,33.152369,-91.959152,North,AR,
71638,33.524054,-91.439391,Dermott,AR,
71639,33.892102,-91.486056,Dumas,AR,
71640,33.12135,-91.271552,Eudora,AR,
71642,33.342951,-91.835627,Fountain Hill,AR,
71643,34.034503,-91.576798,Gould,AR,
71644,34.030484,-91.67082,Tamo,AR,
71646,33.2058,-91.802265,Hamburg,AR,
71647,33.422207,-92.127714,Ingalls,AR,
71651,33.388914,-92.296613,Jersey,AR,
71652,33.86002,-92.301415,Kingsland,AR,
71653,33.327408,-91.282487,Lake Village,AR,
71654,33.62971,-91.392781,Mc Gehee,AR,
71655,33.624951,-91.794845,Monticello,AR,
71658,33.307516,-91.522776,Montrose,AR,
71660,33.758846,-92.193909,New Edinburg,AR,
71661,33.121267,-91.542793,Parkdale,AR,
71662,33.807923,-91.39157,Pickens,AR,
71663,33.231773,-91.513935,Portland,AR,
71665,33.945325,-92.118762,Rison,AR,
71666,33.616003,-91.205124,Rohwer,AR,
71667,33.940528,-91.865343,Star City,AR,
71670,33.67479,-91.520287,Reed,AR,
71671,33.613983,-92.077824,Warren,AR,
71674,33.890737,-91.281455,Watson,AR,
71675,33.621296,-91.925697,Wilmar,AR,
71676,33.057557,-91.572283,Wilmot,AR,
71677,33.752039,-91.543059,Winchester,AR,
71678,34.017166,-91.796472,Yorktown,AR,
71701,33.575866,-92.833386,East Camden,AR,
71720,33.729797,-92.61802,Bearden,AR,
71722,33.698191,-93.186811,Bluff City,AR,
71725,34.063625,-92.62623,Carthage,AR,
71726,33.700148,-93.018716,Reader,AR,
71730,33.20735,-92.662856,El Dorado,AR,
71740,33.089054,-93.198699,Emerson,AR,
71742,33.817648,-92.422475,Fordyce,AR,
71743,33.912493,-93.141691,Gurdon,AR,
71744,33.537613,-92.52951,Hampton,AR,
71745,33.510865,-92.391243,Harrell,AR,
71747,33.045888,-92.194153,Huttig,AR,
71748,33.902984,-92.439406,Ivan,AR,
71749,33.043965,-92.684254,Junction City,AR,
71751,33.411744,-92.782759,Louann,AR,
71752,33.36222,-93.193006,Mc Neil,AR,
71753,33.264678,-93.239153,Magnolia,AR,
71758,33.308534,-92.944265,Mount Holly,AR,
71759,33.309619,-92.657619,Norphlet,AR,
71762,33.339831,-92.74425,Smackover,AR,
71763,33.902989,-92.810984,Manning,AR,
71764,33.455044,-93.021391,Stephens,AR,
71765,33.119526,-92.362104,Strong,AR,
71766,33.767694,-92.468299,Thornton,AR,
71767,33.643436,-92.382192,Tinsman,AR,
71769,33.281849,-93.046404,Village,AR,
71770,33.360017,-93.294915,Waldo,AR,
71801,33.656645,-93.590305,Perrytown,AR,
71822,33.678711,-94.135102,Ashdown,AR,
71825,33.875468,-93.536035,Blevins,AR,
71826,33.106963,-93.627496,Bradley,AR,
71827,33.375323,-93.446998,Buckner,AR,
71828,33.616403,-93.26497,Cale,AR,
71831,33.745108,-93.85588,Columbus,AR,
71832,34.044206,-94.338559,De Queen,AR,
71833,34.13232,-94.015243,Dierks,AR,
71834,33.105448,-93.954307,Doddridge,AR,
71835,33.692896,-93.423242,Emmet,AR,
71836,33.71759,-94.388108,Foreman,AR,
71837,33.302476,-93.900953,Fouke,AR,
71838,33.629876,-93.808562,Fulton,AR,
71839,33.335161,-93.731624,Garland City,AR,
71841,34.157003,-94.316497,Gillham,AR,
71842,33.939221,-94.295942,Horatio,AR,
71845,33.373603,-93.595258,Lewisville,AR,
71846,33.930553,-94.127588,Lockesburg,AR,
71847,33.923042,-93.626605,Mc Caskill,AR,
71851,33.863852,-93.918828,Mineral Springs,AR,
71852,33.957646,-93.870709,Nashville,AR,
71853,33.585706,-94.027826,Ogden,AR,
71855,33.902775,-93.771443,Ozan,AR,
71857,33.804029,-93.372544,Prescott,AR,
71858,33.561693,-93.303891,Rosston,AR,
71859,33.759883,-93.876723,Saratoga,AR,
71860,33.356877,-93.501307,Stamps,AR,
71861,33.107957,-93.446019,Taylor,AR,
71862,33.754596,-93.673529,Washington,AR,
71864,33.484731,-93.31212,Willisville,AR,
71865,33.734794,-94.135746,Wilton,AR,
71866,33.858321,-94.395174,Winthrop,AR,
71901,34.501475,-93.026024,Lake Catherine,AR,
71909,34.65862,-93.006386,Hot Springs Vill,AR,
71913,34.473304,-93.109177,Lake Hamilton,AR,
71921,34.259362,-93.420551,Amity,AR,
71922,34.028296,-93.437169,Antoine,AR,
71923,34.11525,-93.068989,Arkadelphia,AR,
71929,34.311033,-93.187236,Bismarck,AR,
71931,34.703957,-93.063509,Blakely,AR,
71933,34.349751,-93.319415,Bonnerdale,AR,
71935,34.397579,-93.586376,Caddo Gap,AR,
71937,34.419159,-94.39234,Cove,AR,
71940,34.023772,-93.524666,Delight,AR,
71941,34.221221,-92.909384,Donaldson,AR,
71942,34.241225,-92.980393,Friendship,AR,
71943,34.319207,-93.555881,Glenwood,AR,
71944,34.237021,-94.3255,Grannis,AR,
71945,34.487703,-94.371397,Hatfield,AR,
71949,34.693729,-93.196318,Jessieville,AR,
71950,34.255153,-93.616716,Kirby,AR,
71952,34.314035,-93.850942,Langley,AR,
71953,34.581435,-94.220984,Mena,AR,
71956,34.577182,-93.160041,Buckville,AR,
71957,34.561194,-93.574904,Mount Ida,AR,
71958,34.101734,-93.710903,Murfreesboro,AR,
71959,34.227347,-93.890487,Newhope,AR,
71960,34.459633,-93.674304,Norman,AR,
71961,34.611292,-93.821103,Oden,AR,
71962,34.055138,-93.289679,Okolona,AR,
71964,34.435092,-93.242015,Pearcy,AR,
71965,34.639946,-93.742947,Pencil Bluff,AR,
71968,34.515049,-93.289734,Royal,AR,
71969,34.646181,-93.674071,Sims,AR,
71970,34.668695,-93.537587,Story,AR,
71971,34.292129,-94.031377,Umpire,AR,
71972,34.379535,-94.369788,Vandervoort,AR,
71973,34.308806,-94.340257,Wickes,AR,
72001,35.046956,-92.903325,Adona,AR,
72002,34.631266,-92.472673,Alexander,AR,
72003,34.41459,-91.430992,Almyra,AR,
72004,34.306168,-91.828916,Altheimer,AR,
72005,35.561559,-91.079636,Amagon,AR,
72006,35.278806,-91.352653,Augusta,AR,
72007,35.028369,-91.959398,Austin,AR,
72010,35.311331,-91.550197,Bald Knob,AR,
72011,34.545537,-92.360531,Bauxite,AR,
72012,35.093743,-91.907449,Beebe,AR,
72013,35.423367,-92.408523,Bee Branch,AR,
72014,35.420267,-91.106371,Beedeville,AR,
72015,34.580087,-92.595241,Benton,AR,
72016,34.984659,-92.630842,Bigelow,AR,
72017,34.833706,-91.490028,Biscoe,AR,
72020,35.427655,-91.518973,Bradford,AR,
72021,34.878124,-91.188596,Brinkley,AR,
72022,34.606786,-92.492015,Bryant,AR,
72023,34.945724,-92.031771,Cabot,AR,
72024,34.793291,-91.745929,Carlisle,AR,
72025,35.032168,-93.047005,Casa,AR,
72026,34.473625,-91.324798,Casscoe,AR,
72027,35.398063,-92.558167,Center Ridge,AR,
72028,35.523528,-92.426412,Choctaw,AR,
72029,34.660138,-91.256426,Clarendon,AR,
72030,35.358328,-92.712821,Cleveland,AR,
72031,35.604537,-92.475825,Clinton,AR,
72032,35.084199,-92.423574,Conway,AR,
72036,35.017827,-91.229043,Cotton Plant,AR,
72038,34.425272,-91.232079,Crocketts Bluff,AR,
72039,35.291042,-92.432952,Twin Groves,AR,
72040,34.97507,-91.511342,Des Arc,AR,
72041,34.744704,-91.498218,De Valls Bluff,AR,
72042,34.285312,-91.333627,De Witt,AR,
72044,35.623006,-92.199471,Edgemont,AR,
72045,35.114176,-92.090076,El Paso,AR,
72046,34.557458,-91.948422,England,AR,
72047,35.208705,-92.212328,Enola,AR,
72048,34.243525,-91.139839,Ethel,AR,
72051,35.768208,-92.304266,Fox,AR,
72052,35.130305,-91.742884,Garner,AR,
72055,34.121838,-91.380048,Gillett,AR,
72057,34.130893,-92.310944,Grapevine,AR,
72058,35.229547,-92.357792,Greenbrier,AR,
72060,35.114383,-91.624234,Griffithville,AR,
72061,35.318487,-92.331539,Guy,AR,
72063,35.290713,-92.778317,Hattieville,AR,
72064,34.783833,-91.576699,Hazen,AR,
72065,34.591133,-92.214019,Hensley,AR,
72066,34.978642,-91.750844,Hickory Plains,AR,
72067,35.549812,-92.182284,Greers Ferry,AR,
72068,35.188254,-91.71828,Higginson,AR,
72069,34.599294,-91.184376,Holly Grove,AR,
72070,35.036209,-92.691319,Houston,AR,
72072,34.541896,-91.756616,Humnoke,AR,
72073,34.403387,-91.67896,Humphrey,AR,
72076,34.881985,-92.130435,Gravel Ridge,AR,
72079,34.355285,-92.148574,Jefferson,AR,
72080,35.37975,-92.813886,Jerusalem,AR,
72081,35.324954,-91.649087,Judsonia,AR,
72082,35.229939,-91.669672,Kensett,AR,
72083,34.604072,-92.007844,Keo,AR,
72084,34.185605,-92.597865,Leola,AR,
72086,34.783162,-91.921367,Lonoke,AR,
72087,34.556203,-92.834034,Lonsdale,AR,
72101,35.247292,-91.179327,Mc Crory,AR,
72102,35.11322,-91.821551,Mc Rae,AR,
72103,34.621756,-92.384618,Shannon Hills,AR,
72104,34.355715,-92.829162,Malvern,AR,
72105,34.453624,-92.861975,Jones Mills,AR,
72106,34.966853,-92.400102,Mayflower,AR,
72110,35.169227,-92.735436,Morrilton,AR,
72111,35.260613,-92.137334,Mount Vernon,AR,
72112,35.598823,-91.257064,Newport,AR,
72113,34.849085,-92.405892,Maumelle,AR,
72114,34.766974,-92.265376,North Little Roc,AR,
72116,34.807629,-92.237359,Sherwood,AR,
72117,34.776305,-92.194604,North Little Roc,AR,
72118,34.821598,-92.307875,Camp Joseph T Ro,AR,
72120,34.859292,-92.214169,North Little Roc,AR,
72121,35.421583,-91.795971,Pangburn,AR,
72122,34.785289,-92.748176,Paron,AR,
72125,35.042732,-92.787976,Perry,AR,
72126,34.970096,-92.847171,Perryville,AR,
72127,35.157466,-92.620435,Plumerville,AR,
72128,34.350828,-92.599037,Poyen,AR,
72129,34.307865,-92.513105,Prattsville,AR,
72130,35.685733,-92.134596,Prim,AR,
72131,35.404988,-92.133334,Quitman,AR,
72132,34.452647,-92.17579,Redfield,AR,
72133,34.143281,-91.550395,Reydell,AR,
72134,34.628592,-91.377058,Roe,AR,
72135,34.88287,-92.519152,Roland,AR,
72136,35.215462,-92.06985,Romance,AR,
72137,35.321447,-92.061988,Rose Bud,AR,
72140,34.335296,-91.16808,Saint Charles,AR,
72141,35.507956,-92.586652,Scotland,AR,
72142,34.694215,-92.11566,Scott,AR,
72143,35.253512,-91.762931,Georgetown,AR,
72150,34.316527,-92.365713,Sheridan,AR,
72152,34.358148,-91.993285,Sherrill,AR,
72153,35.573259,-92.29751,Shirley,AR,
72156,35.270056,-92.675387,Solgohachia,AR,
72157,35.274879,-92.54567,Springfield,AR,
72160,34.485358,-91.548742,Stuttgart,AR,
72165,35.553556,-91.461823,Thida,AR,
72166,34.089311,-91.243684,Tichnor,AR,
72167,34.450791,-92.654734,Traskwood,AR,
72168,34.441442,-91.916265,Tucker,AR,
72170,34.579938,-91.51343,Ulm,AR,
72173,35.071895,-92.183235,Vilonia,AR,
72175,34.393552,-91.754948,Wabbaseka,AR,
72176,34.95316,-91.900383,Ward,AR,
72179,35.454547,-91.907248,Wilburn,AR,
72181,35.197308,-92.450998,Wooster,AR,
72182,34.437656,-92.06308,Wright,AR,
72201,34.748342,-92.281939,Little Rock,AR,
72202,34.736322,-92.274067,Little Rock,AR,
72204,34.726904,-92.344041,Little Rock,AR,
72205,34.750971,-92.345512,Little Rock,AR,
72206,34.683599,-92.277606,Little Rock,AR,
72207,34.772121,-92.356481,Little Rock,AR,
72208,34.781575,-92.585581,Ferndale,AR,
72209,34.672509,-92.352919,Little Rock,AR,
72210,34.707625,-92.465981,Little Rock,AR,
72211,34.758819,-92.431485,Little Rock,AR,
72212,34.787076,-92.422232,Little Rock,AR,
72301,35.148442,-90.17792,West Memphis,AR,
72310,35.942843,-89.758118,Armorel,AR,
72311,34.702727,-90.911331,Aubrey,AR,
72313,35.513808,-90.192155,Bassett,AR,
72314,35.409571,-90.67074,Birdeye,AR,
72315,35.934482,-89.922497,Blytheville A F,AR,
72320,34.854814,-90.537738,Brickeys,AR,
72321,35.814769,-89.942312,Burdette,AR,
72324,35.399122,-90.761329,Cherry Valley,AR,
72326,35.096062,-90.787204,Colt,AR,
72327,35.211873,-90.335107,Crawfordsville,AR,
72328,34.216167,-90.949535,Crumrod,AR,
72329,35.559714,-89.960526,Driver,AR,
72330,35.595394,-90.215716,Dyess,AR,
72331,35.27989,-90.450261,Earle,AR,
72332,35.022309,-90.328672,Edmondson,AR,
72333,34.308668,-90.873485,Elaine,AR,
72335,35.009129,-90.788572,Forrest City,AR,
72338,35.478419,-90.055933,Frenchmans Bayou,AR,
72339,35.386408,-90.264664,Gilmore,AR,
72340,34.959149,-90.983518,Goodwin,AR,
72341,34.883752,-90.766621,Haynes,AR,
72342,34.532491,-90.629784,Helena,AR,
72346,35.097335,-90.458554,Heth,AR,
72347,35.399457,-90.982283,Hickory Ridge,AR,
72348,34.945416,-90.474142,Hughes,AR,
72350,35.505239,-90.14779,Joiner,AR,
72351,35.678626,-90.096171,Keiser,AR,
72354,35.606909,-90.335883,Lepanto,AR,
72355,34.672694,-90.78532,Lexa,AR,
72358,35.760786,-89.92204,Luxora,AR,
72360,34.775929,-90.77852,Marianna,AR,
72364,35.2077,-90.198908,Marion,AR,
72365,35.534933,-90.419387,Marked Tree,AR,
72366,34.548541,-90.941322,Marvell,AR,
72367,34.220032,-91.008589,Mellwood,AR,
72368,34.802953,-91.006026,Moro,AR,
72369,34.405267,-90.826045,Oneida,AR,
72370,35.701864,-89.979764,Osceola,AR,
72372,34.966346,-90.904929,Palestine,AR,
72373,35.258557,-90.556417,Parkin,AR,
72374,34.539397,-90.881274,Poplar Grove,AR,
72376,35.083396,-90.255026,Proctor,AR,
72379,34.066466,-91.007083,Snow Lake,AR,
72381,35.806666,-89.787092,Tomato,AR,
72384,35.296936,-90.262979,Turrell,AR,
72386,35.486477,-90.351944,Tyronza,AR,
72390,34.549635,-90.654531,West Helena,AR,
72392,34.920703,-91.108645,Wheatley,AR,
72394,35.059167,-90.629313,Widener,AR,
72395,35.566004,-90.042749,Wilson,AR,
72396,35.233036,-90.79303,Wynne,AR,
72397,35.236817,-91.014304,Fair Oaks,AR,
72401,35.833016,-90.696526,Jonesboro,AR,
72410,35.942327,-91.081003,Alicia,AR,
72411,35.74559,-90.550658,Bay,AR,
72412,36.183172,-90.618084,Beech Grove,AR,
72413,36.342978,-90.784467,Biggers,AR,
72414,35.835851,-90.354227,Black Oak,AR,
72415,36.114874,-91.117629,Black Rock,AR,
72416,35.908592,-90.784753,Bono,AR,
72417,35.91647,-90.576228,Brookland,AR,
72419,35.758951,-90.335797,Caraway,AR,
72421,35.830145,-90.941007,Cash,AR,
72422,36.415532,-90.58702,Corning,AR,
72424,36.389685,-90.723117,Datto,AR,
72425,36.199485,-90.734482,Delaplaine,AR,
72426,35.850118,-90.035449,Dell,AR,
72428,35.714707,-90.218172,Etowah,AR,
72429,35.513956,-90.955001,Fisher,AR,
72430,36.334766,-90.225257,Greenway,AR,
72432,35.572222,-90.703752,Harrisburg,AR,
72433,36.032573,-90.971504,Hoxie,AR,
72434,36.19763,-91.185442,Imboden,AR,
72435,36.317647,-90.599048,Knobel,AR,
72436,36.21547,-90.506973,Lafe,AR,
72437,35.81715,-90.442327,Lake City,AR,
72438,35.933216,-90.195488,Leachville,AR,
72440,36.016639,-91.254588,Lynn,AR,
72441,36.379909,-90.394093,Mc Dougal,AR,
72442,35.874885,-90.180252,Roseland,AR,
72443,36.195117,-90.38368,Marmaduke,AR,
72444,36.438563,-90.874921,Maynard,AR,
72445,35.976096,-91.033704,Minturn,AR,
72447,35.900168,-90.343658,Monette,AR,
72449,36.179672,-90.824069,O Kean,AR,
72450,36.060033,-90.525093,Paragould,AR,
72453,36.283045,-90.670217,Peach Orchard,AR,
72454,36.386993,-90.19261,Piggott,AR,
72455,36.282876,-90.996782,Pocahontas,AR,
72456,36.431725,-90.275123,Pollard,AR,
72457,36.080699,-91.068004,Portia,AR,
72458,36.080044,-91.148214,Powhatan,AR,
72459,36.202863,-91.25934,Ravenden,AR,
72460,36.310384,-91.209433,Ravenden Springs,AR,
72461,36.267177,-90.270201,Rector,AR,
72464,36.454771,-90.144991,Saint Francis,AR,
72465,35.985965,-90.880099,Sedgwick,AR,
72466,36.090815,-91.274456,Smithville,AR,
72467,35.914894,-90.454245,State University,AR,
72469,35.972622,-91.375398,Calamine,AR,
72470,36.453615,-90.728128,Success,AR,
72471,35.827366,-91.126358,Swifton,AR,
72472,35.668914,-90.518738,Payneway,AR,
72473,35.730678,-91.200347,Tuckerman,AR,
72476,36.077814,-90.952809,College City,AR,
72478,36.467531,-91.038707,Warm Springs,AR,
72479,35.629052,-90.928928,Weiner,AR,
72482,36.245335,-91.379226,Williford,AR,
72501,35.782614,-91.63519,Batesville,AR,
72512,36.202502,-91.755334,Horseshoe Bend,AR,
72513,36.219732,-91.610746,Agnos,AR,
72515,36.306103,-91.985998,Bexar,AR,
72516,36.01084,-92.044307,Boswell,AR,
72517,36.135755,-91.951308,Brockwell,AR,
72519,36.144771,-92.145494,Jordan,AR,
72520,36.402531,-91.726166,Camp,AR,
72521,35.951684,-91.544432,Cave City,AR,
72522,35.833393,-91.396217,Charlotte,AR,
72523,35.641355,-91.833339,Concord,AR,
72524,35.81844,-91.337455,Cord,AR,
72526,35.869663,-91.776455,Cushman,AR,
72527,35.731524,-91.678287,Desha,AR,
72528,36.222878,-92.11766,Dolph,AR,
72529,36.30114,-91.528075,Cherokee Village,AR,
72530,35.661606,-91.939818,Drasco,AR,
72531,36.323776,-92.093366,Elizabeth,AR,
72532,36.085532,-91.598014,Evening Shade,AR,
72533,35.991958,-92.218169,Fifty Six,AR,
72534,35.602337,-91.734101,Floral,AR,
72536,36.129093,-91.809592,Franklin,AR,
72537,36.461794,-92.228447,Gamaliel,AR,
72538,36.436443,-92.099507,Gepp,AR,
72539,36.288962,-91.769483,Glencoe,AR,
72540,35.960135,-91.934287,Guion,AR,
72542,36.322746,-91.411027,Hardy,AR,
72543,35.510278,-92.039211,Heber Springs,AR,
72544,36.356829,-92.269253,Henderson,AR,
72546,35.594326,-91.930081,Ida,AR,
72550,35.717705,-91.741443,Locust Grove,AR,
72553,35.710062,-91.485041,Magness,AR,
72554,36.407648,-91.575712,Mammoth Spring,AR,
72555,35.749654,-91.941891,Marcella,AR,
72556,36.059958,-91.905196,Zion,AR,
72557,36.468902,-91.858663,Moko,AR,
72560,35.865769,-92.114762,Hanover,AR,
72561,35.975909,-91.785013,Mount Pleasant,AR,
72562,35.71183,-91.439395,Newark,AR,
72564,35.613147,-91.470305,Oil Trough,AR,
72565,36.211408,-91.925849,Oxford,AR,
72566,36.167704,-92.107299,Pineville,AR,
72567,35.842349,-91.931905,Pleasant Grove,AR,
72568,35.589301,-91.632043,Pleasant Plains,AR,
72569,36.071526,-91.451575,Poughkeepsie,AR,
72571,35.663816,-91.534003,Rosie,AR,
72572,35.917957,-91.297753,Saffell,AR,
72573,36.042476,-91.824569,Sage,AR,
72575,35.703493,-91.597924,Salado,AR,
72576,36.365401,-91.836321,Byron,AR,
72577,35.991554,-91.634593,Sidney,AR,
72578,36.463869,-91.989917,Sturkie,AR,
72579,35.754466,-91.507333,Sulphur Rock,AR,
72581,35.546985,-91.970359,Tumbling Shoals,AR,
72583,36.392429,-91.993198,Viola,AR,
72584,36.162966,-91.847064,Violet Hill,AR,
72585,36.198739,-92.001796,Wideman,AR,
72587,36.228022,-91.849499,Wiseman,AR,
72601,36.241707,-93.106162,Harrison,AR,
72610,35.894511,-92.380753,Alco,AR,
72611,36.299768,-93.2792,Alpena,AR,
72612,35.892225,-92.999832,Bass,AR,
72616,36.351908,-93.558725,Berryville,AR,
72617,36.006824,-92.391681,Big Flat,AR,
72618,36.124617,-92.763651,Bruno,AR,
72619,36.370958,-92.593765,Bull Shoals,AR,
72623,36.443311,-92.35159,Clarkridge,AR,
72624,36.097941,-93.309903,Compton,AR,
72626,36.280378,-92.532787,Cotter,AR,
72628,35.852982,-93.317388,Deer,AR,
72629,35.725236,-92.557456,Dennard,AR,
72632,36.417465,-93.737915,Eureka Springs,AR,
72633,36.153366,-92.914989,Everton,AR,
72634,36.268219,-92.577995,Flippin,AR,
72635,36.317525,-92.473637,Gassville,AR,
72638,36.322408,-93.405875,Green Forest,AR,
72639,35.974187,-92.50055,Harriet,AR,
72640,36.015229,-93.045966,Hasty,AR,
72641,36.003798,-93.204771,Jasper,AR,
72642,36.397308,-92.504416,Lakeview,AR,
72644,36.430886,-92.930194,Lead Hill,AR,
72645,35.82716,-92.566293,Leslie,AR,
72648,36.095121,-93.144822,Dogpatch,AR,
72650,35.926697,-92.640203,Marshall,AR,
72651,36.290454,-92.431398,Midway,AR,
72653,36.331153,-92.375337,Mountain Home,AR,
72655,35.834674,-93.082391,Mount Judea,AR,
72657,35.896338,-92.252536,Timbo,AR,
72658,36.206571,-92.273011,Norfork,AR,
72660,36.461347,-93.432129,Oak Grove,AR,
72661,36.444227,-92.583187,Oakland,AR,
72662,36.46123,-93.188753,Omaha,AR,
72663,35.940339,-92.345859,Onia,AR,
72666,35.940836,-93.267776,Parthenon,AR,
72668,36.444374,-92.776143,Peel,AR,
72669,36.067479,-92.886409,Pindall,AR,
72670,36.066225,-93.401985,Ponca,AR,
72675,35.987707,-92.792828,Saint Joe,AR,
72679,35.6976,-92.844209,Tilly,AR,
72680,35.855318,-92.337929,Newnata,AR,
72682,36.146823,-92.979937,Valley Springs,AR,
72683,35.948062,-93.100815,Vendor,AR,
72685,36.082994,-92.971649,Western Grove,AR,
72686,35.785514,-92.815518,Witts Springs,AR,
72687,36.225322,-92.724472,Yellville,AR,
72701,36.052045,-94.153395,Fayetteville,AR,
72703,36.099183,-94.17163,Fayetteville,AR,
72712,36.357703,-94.22242,Bentonville,AR,
72714,36.465086,-94.251969,Bella Vista,AR,
72716,36.326554,-94.181483,Wal-Mart Inc,AR,
72717,35.910992,-94.3862,Canehill,AR,
72718,36.266771,-94.207836,Cave Springs,AR,
72719,36.366993,-94.30891,Centerton,AR,
72721,35.848297,-93.825218,Combs,AR,
72722,36.334749,-94.453411,Decatur,AR,
72727,36.017719,-94.007323,Elkins,AR,
72729,35.819345,-94.478936,Evansville,AR,
72730,36.043635,-94.253871,Farmington,AR,
72732,36.428817,-93.951197,Garfield,AR,
72733,36.485751,-93.935016,Gateway,AR,
72734,36.26516,-94.475131,Gentry,AR,
72735,36.107523,-93.987262,Goshen,AR,
72736,36.415513,-94.477862,Gravette,AR,
72738,36.142206,-93.863339,Hindsville,AR,
72739,36.441589,-94.338993,Hiwasse,AR,
72740,36.104348,-93.727893,Huntsville,AR,
72742,36.04845,-93.504357,Kingston,AR,
72744,35.956931,-94.42724,Lincoln,AR,
72745,36.243318,-94.082725,Lowell,AR,
72747,36.401062,-94.581278,Maysville,AR,
72749,35.85373,-94.425793,Morrow,AR,
72751,36.453884,-94.118026,Pea Ridge,AR,
72752,35.834562,-93.618079,Pettigrew,AR,
72753,35.991809,-94.316861,Prairie Grove,AR,
72756,36.336316,-94.114784,Rogers,AR,
72760,35.849576,-93.734743,Saint Paul,AR,
72761,36.179969,-94.528036,Siloam Springs,AR,
72762,36.183521,-94.176216,Springdale,AR,
72764,36.177918,-94.104682,Bethel Heights,AR,
72768,36.479434,-94.452069,Sulphur Springs,AR,
72769,36.013827,-94.500027,Summers,AR,
72773,35.957264,-93.911478,Wesley,AR,
72774,35.908153,-94.230375,West Fork,AR,
72776,35.935583,-93.621,Witter,AR,
72801,35.284208,-93.131476,Russellville,AR,
72820,35.430767,-93.726416,Alix,AR,
72821,35.404873,-93.811494,Altus,AR,
72823,35.244948,-92.950696,Atkins,AR,
72824,35.103762,-93.451817,Belleville,AR,
72826,35.130386,-93.716797,Blue Mountain,AR,
72827,34.901635,-93.591946,Bluffton,AR,
72828,34.916065,-93.515748,Briggsville,AR,
72830,35.490763,-93.491056,Clarksville,AR,
72832,35.437117,-93.67203,Coal Hill,AR,
72833,35.049541,-93.392933,Danville,AR,
72834,35.195507,-93.187316,Dardanelle,AR,
72835,35.278005,-93.346152,Delaware,AR,
72837,35.407356,-93.135526,Dover,AR,
72838,34.888123,-93.680249,Gravelly,AR,
72839,35.523291,-93.344256,Hagarville,AR,
72840,35.443583,-93.614196,Hartman,AR,
72841,34.867912,-93.752538,Harvey,AR,
72842,35.111845,-93.576719,Waveland,AR,
72843,35.40574,-92.965559,Hector,AR,
72845,35.374897,-93.361797,Knoxville,AR,
72846,35.434868,-93.355157,Lamar,AR,
72847,35.337017,-93.238907,London,AR,
72851,35.318912,-93.44457,New Blaine,AR,
72852,35.709454,-93.558531,Oark,AR,
72853,35.03091,-93.21356,Ola,AR,
72854,35.657478,-93.43111,Ozone,AR,
72855,35.294149,-93.726469,Paris,AR,
72856,35.691158,-93.016088,Pelsor,AR,
72857,34.966793,-93.309897,Plainview,AR,
72858,35.239785,-93.056386,Pottsville,AR,
72860,34.947522,-93.401728,Rover,AR,
72863,35.330816,-93.539362,Scranton,AR,
72865,35.31346,-93.63869,Subiaco,AR,
72901,35.365272,-94.411035,Fort Smith,AR,
72903,35.342673,-94.378361,Fort Smith,AR,
72904,35.405122,-94.38723,Fort Smith,AR,
72905,35.297366,-94.340521,Fort Chaffee,AR,
72916,35.250175,-94.370308,Fort Smith,AR,
72921,35.500043,-94.207337,Alma,AR,
72923,35.332963,-94.308226,Barling,AR,
72924,34.909295,-94.393155,Bates,AR,
72926,34.765363,-94.062864,Boles,AR,
72927,35.136385,-93.927433,Booneville,AR,
72928,35.297055,-93.94537,Branch,AR,
72930,35.434176,-93.942932,Cecil,AR,
72932,35.590231,-94.344618,Cedarville,AR,
72933,35.311502,-94.03368,Charleston,AR,
72934,35.689776,-94.202026,Chester,AR,
72936,35.195476,-94.253027,Greenwood,AR,
72937,35.194476,-94.398328,Hackett,AR,
72938,35.022233,-94.381876,Hartford,AR,
72940,35.096267,-94.331283,Huntington,AR,
72941,35.337513,-94.165637,Central City,AR,
72943,35.15873,-93.800336,Magazine,AR,
72944,35.0432,-94.22036,Mansfield,AR,
72946,35.570027,-94.109094,Mountainburg,AR,
72947,35.517246,-93.988505,Mulberry,AR,
72948,35.674259,-94.412377,Natural Dam,AR,
72949,35.524645,-93.837423,Ozark,AR,
72950,34.800333,-93.950913,Parks,AR,
72951,35.276032,-93.842149,Ratcliff,AR,
72952,35.539805,-94.237376,Rudy,AR,
72955,35.574822,-94.43487,Uniontown,AR,
72956,35.453989,-94.327762,Van Buren,AR,
72958,34.902642,-94.077243,Waldron,AR,
72959,35.831206,-94.118657,Winslow,AR,
75502,33.432644,-94.011281,Texarkana,AR,
90001,33.973093,-118.247896,Los Angeles,CA,
90002,33.94969,-118.246213,Los Angeles,CA,
90003,33.965335,-118.272739,Los Angeles,CA,
90004,34.076163,-118.302863,Los Angeles,CA,
90005,34.058508,-118.301197,Los Angeles,CA,
90006,34.049323,-118.291687,Los Angeles,CA,
90007,34.029442,-118.287095,Los Angeles,CA,
90008,34.011643,-118.341123,Los Angeles,CA,
90010,34.060633,-118.302664,Los Angeles,CA,
90011,34.007856,-118.258189,Los Angeles,CA,
90012,34.061396,-118.238479,Los Angeles,CA,
90013,34.044841,-118.243366,Los Angeles,CA,
90014,34.044272,-118.250937,Los Angeles,CA,
90015,34.043439,-118.271613,Los Angeles,CA,
90016,34.029826,-118.352787,Los Angeles,CA,
90017,34.055864,-118.266582,Los Angeles,CA,
90018,34.028972,-118.315173,Los Angeles,CA,
90019,34.048158,-118.33426,Los Angeles,CA,
90020,34.066535,-118.302211,Los Angeles,CA,
90021,34.033303,-118.244698,Los Angeles,CA,
90022,34.023638,-118.155319,East Los Angeles,CA,
90023,34.024478,-118.197498,Los Angeles,CA,
90024,34.063691,-118.440796,Los Angeles,CA,
90025,34.044662,-118.448717,Los Angeles,CA,
90026,34.076629,-118.264641,Los Angeles,CA,
90027,34.104031,-118.292516,Los Angeles,CA,
90028,34.100549,-118.325363,Los Angeles,CA,
90029,34.089982,-118.294393,Los Angeles,CA,
90031,34.078349,-118.211279,Los Angeles,CA,
90032,34.081785,-118.175323,Los Angeles,CA,
90033,34.048676,-118.208442,Los Angeles,CA,
90034,34.028977,-118.400482,Los Angeles,CA,
90035,34.053096,-118.380615,Los Angeles,CA,
90036,34.069888,-118.349175,Los Angeles,CA,
90037,34.002982,-118.286284,Los Angeles,CA,
90038,34.089769,-118.321489,Los Angeles,CA,
90039,34.112089,-118.259428,Los Angeles,CA,
90040,33.99471,-118.151352,City Of Commerce,CA,
90041,34.133932,-118.208205,Los Angeles,CA,
90042,34.114527,-118.192902,Los Angeles,CA,
90043,33.987099,-118.33211,Los Angeles,CA,
90044,33.955089,-118.290119,Los Angeles,CA,
90045,33.963075,-118.394128,Los Angeles,CA,
90046,34.09743,-118.357979,Cole,CA,
90047,33.956896,-118.307304,Los Angeles,CA,
90048,34.073656,-118.371969,Los Angeles,CA,
90049,34.066,-118.473967,Los Angeles,CA,
90056,33.985329,-118.370703,Los Angeles,CA,
90057,34.062172,-118.276262,Los Angeles,CA,
90058,33.997344,-118.235365,Vernon,CA,
90059,33.929331,-118.24628,Los Angeles,CA,
90061,33.924493,-118.271638,Los Angeles,CA,
90062,34.00324,-118.307277,Los Angeles,CA,
90063,34.044017,-118.185432,Hazard,CA,
90064,34.035279,-118.425911,Los Angeles,CA,
90065,34.107307,-118.226637,Los Angeles,CA,
90066,34.002956,-118.429769,Los Angeles,CA,
90067,34.055146,-118.409479,Los Angeles,CA,
90068,34.115625,-118.330476,Los Angeles,CA,
90069,34.090573,-118.378753,West Hollywood,CA,
90071,34.052043,-118.257127,Los Angeles,CA,
90077,34.111245,-118.450155,Los Angeles,CA,
90201,33.969177,-118.17205,Bell Gardens,CA,
90210,34.090107,-118.406477,Beverly Hills,CA,
90211,34.065217,-118.383007,Beverly Hills,CA,
90212,34.061855,-118.399544,Beverly Hills,CA,
90220,33.890654,-118.239044,Rancho Dominguez,CA,
90221,33.897324,-118.203724,East Rancho Domi,CA,
90222,33.911535,-118.234034,Rosewood,CA,
90230,33.994927,-118.399115,Culver City,CA,
90232,34.016809,-118.397332,Culver City,CA,
90240,33.958135,-118.117381,Downey,CA,
90241,33.941612,-118.13062,Downey,CA,
90242,33.921789,-118.139465,Downey,CA,
90245,33.924275,-118.411924,El Segundo,CA,
90247,33.892463,-118.296122,Gardena,CA,
90248,33.874506,-118.289312,Gardena,CA,
90249,33.899762,-118.319854,Gardena,CA,
90250,33.913214,-118.346978,Holly Park,CA,
90254,33.864309,-118.395511,Hermosa Beach,CA,
90255,33.976879,-118.216053,Huntington Park,CA,
90260,33.887908,-118.351014,Lawndale,CA,
90262,33.924076,-118.201289,Lynwood,CA,
90265,34.040184,-118.735149,Malibu,CA,
90266,33.889594,-118.399562,Manhattan Beach,CA,
90270,33.988992,-118.187685,Maywood,CA,
90272,34.054097,-118.536874,Pacific Palisade,CA,
90274,33.770094,-118.374763,Palos Verdes Est,CA,
90277,33.830656,-118.383221,Redondo Beach,CA,
90278,33.870654,-118.371459,Redondo Beach,CA,
90280,33.94617,-118.201349,South Gate,CA,
90290,34.10759,-118.602268,Topanga,CA,
90291,33.993772,-118.463463,Venice,CA,
90292,33.977876,-118.452475,Marina Del Rey,CA,
90293,33.957745,-118.437314,Playa Del Rey,CA,
90301,33.955048,-118.355575,Inglewood,CA,
90302,33.974496,-118.354805,Inglewood,CA,
90303,33.937691,-118.332058,Inglewood,CA,
90304,33.938514,-118.355562,Lennox,CA,
90305,33.958304,-118.32585,Inglewood,CA,
90401,34.017628,-118.490708,Santa Monica,CA,
90402,34.034875,-118.503011,Santa Monica,CA,
90403,34.028658,-118.49241,Santa Monica,CA,
90404,34.026828,-118.4733,Santa Monica,CA,
90405,34.01001,-118.471708,Santa Monica,CA,
90501,33.826817,-118.31183,Torrance,CA,
90502,33.828555,-118.292039,Torrance,CA,
90503,33.839709,-118.354236,Torrance,CA,
90504,33.870815,-118.329517,Torrance,CA,
90505,33.810635,-118.350733,Torrance,CA,
90506,33.885367,-118.329543,Torrance,CA,
90601,34.001119,-118.037139,Whittier,CA,
90602,33.96931,-118.033703,Whittier,CA,
90603,33.943199,-117.992685,Whittier,CA,
90604,33.929931,-118.012075,Whittier,CA,
90605,33.941338,-118.035568,Whittier,CA,
90606,33.977019,-118.065639,Los Nietos,CA,
90620,33.840607,-118.011359,Buena Park,CA,
90621,33.873136,-117.994257,Buena Park,CA,
90623,33.849017,-118.040618,Cerritos,CA,
90630,33.818613,-118.038696,Cypress,CA,
90631,33.932173,-117.949703,La Habra Heights,CA,
90638,33.906681,-118.010081,La Mirada,CA,
90640,34.013342,-118.112986,Montebello,CA,
90650,33.90564,-118.081767,Norwalk,CA,
90660,33.98857,-118.088269,Pico Rivera,CA,
90670,33.946407,-118.083801,Santa Fe Springs,CA,
90680,33.803029,-117.994709,Stanton,CA,
90701,33.866568,-118.068046,Cerritos,CA,
90704,33.331963,-118.343706,Avalon,CA,
90706,33.886676,-118.126527,Bellflower,CA,
90710,33.797006,-118.299114,Harbor City,CA,
90712,33.851201,-118.145727,Lakewood,CA,
90713,33.847302,-118.111464,Lakewood,CA,
90715,33.840453,-118.076707,Lakewood,CA,
90716,33.82958,-118.072964,Hawaiian Gardens,CA,
90717,33.793339,-118.31693,Rancho Palos Ver,CA,
90720,33.795291,-118.069891,Rossmoor,CA,
90723,33.896867,-118.163152,Paramount,CA,
90731,33.733894,-118.291425,San Pedro,CA,
90732,33.744947,-118.310597,Rancho Palos Ver,CA,
90740,33.760971,-118.08428,Seal Beach,CA,
90744,33.785475,-118.264451,Wilmington,CA,
90745,33.822968,-118.268352,Carson,CA,
90746,33.858444,-118.255449,Carson,CA,
90802,33.770553,-118.182025,Long Beach,CA,
90803,33.761932,-118.134073,Long Beach,CA,
90804,33.782993,-118.155187,Signal Hill,CA,
90805,33.863457,-118.180102,Long Beach,CA,
90806,33.799319,-118.187443,Signal Hill,CA,
90807,33.830712,-118.18092,Signal Hill,CA,
90808,33.824145,-118.110299,Long Beach,CA,
90810,33.810985,-118.215006,Carson,CA,
90813,33.78202,-118.183488,Long Beach,CA,
90814,33.771576,-118.147988,Long Beach,CA,
90815,33.793908,-118.119249,Long Beach,CA,
90822,33.744415,-118.239257,Long Beach,CA,
91001,34.191187,-118.13919,Altadena,CA,
91006,34.132389,-118.026374,Arcadia,CA,
91007,34.124271,-118.051483,Arcadia,CA,
91010,34.137445,-117.967005,Bradbury,CA,
91011,34.209282,-118.199008,Flintridge,CA,
91016,34.143959,-118.001376,Monrovia,CA,
91020,34.211425,-118.230529,Montrose,CA,
91024,34.165101,-118.051916,Sierra Madre,CA,
91030,34.110939,-118.154696,South Pasadena,CA,
91040,34.261025,-118.321359,Shadow Hills,CA,
91042,34.254389,-118.284856,Tujunga,CA,
91101,34.146762,-118.139119,Pasadena,CA,
91103,34.166906,-118.155119,Pasadena,CA,
91104,34.167776,-118.12609,Pasadena,CA,
91105,34.135455,-118.163577,Pasadena,CA,
91106,34.143527,-118.126647,Pasadena,CA,
91107,34.150997,-118.088905,Pasadena,CA,
91108,34.120698,-118.111745,San Marino,CA,
91201,34.171606,-118.289892,Glendale,CA,
91202,34.165235,-118.265649,Glendale,CA,
91203,34.151718,-118.263614,Glendale,CA,
91204,34.137871,-118.259947,Glendale,CA,
91205,34.137798,-118.24245,Glendale,CA,
91206,34.155605,-118.232217,Glendale,CA,
91207,34.164856,-118.245086,Glendale,CA,
91208,34.19212,-118.234966,Glendale,CA,
91214,34.231619,-118.245687,La Crescenta,CA,
91301,34.157163,-118.75718,Oak Park,CA,
91302,34.141854,-118.664103,Calabasas,CA,
91303,34.199257,-118.59828,Canoga Park,CA,
91304,34.219671,-118.611059,Canoga Park,CA,
91306,34.2092,-118.57492,Winnetka,CA,
91307,34.196343,-118.638892,West Hills,CA,
91311,34.258253,-118.591357,Chatsworth,CA,
91316,34.165479,-118.517542,Encino,CA,
91320,34.177393,-118.935798,Newbury Park,CA,
91321,34.379519,-118.523005,Newhall,CA,
91324,34.236743,-118.546595,Northridge,CA,
91325,34.235332,-118.51884,Northridge,CA,
91326,34.274191,-118.541235,Porter Ranch,CA,
91330,34.23805,-118.528634,California State,CA,
91331,34.258081,-118.420692,Arleta,CA,
91335,34.200663,-118.539071,Reseda,CA,
91340,34.287509,-118.435242,San Fernando,CA,
91342,34.30538,-118.432181,Sylmar,CA,
91343,34.236636,-118.47582,North Hills,CA,
91344,34.277068,-118.4992,Granada Hills,CA,
91345,34.261873,-118.458659,Mission Hills,CA,
91350,34.459742,-118.488955,Agua Dulce,CA,
91351,34.426203,-118.449011,Canyon Country,CA,
91352,34.220907,-118.369853,Sun Valley,CA,
91354,34.446608,-118.537437,Valencia,CA,
91355,34.398456,-118.55352,Valencia,CA,
91356,34.16708,-118.541354,Tarzana,CA,
91360,34.209179,-118.873908,Thousand Oaks,CA,
91361,34.147233,-118.83832,Westlake Village,CA,
91362,34.191884,-118.830601,Westlake Village,CA,
91364,34.155652,-118.600019,Woodland Hills,CA,
91367,34.176689,-118.615891,Woodland Hills,CA,
91381,34.381067,-118.582134,Newhall,CA,
91384,34.482695,-118.62537,Castaic,CA,
91401,34.180152,-118.432375,Van Nuys,CA,
91402,34.226158,-118.447009,Panorama City,CA,
91403,34.151407,-118.460325,Sherman Oaks,CA,
91405,34.200068,-118.445636,Van Nuys,CA,
91406,34.200568,-118.486821,Van Nuys,CA,
91411,34.178133,-118.457396,Van Nuys,CA,
91423,34.152565,-118.432208,Sherman Oaks,CA,
91436,34.15098,-118.488238,Encino,CA,
91501,34.186238,-118.300898,Burbank,CA,
91502,34.174487,-118.305912,Burbank,CA,
91504,34.200097,-118.326401,Burbank,CA,
91505,34.168998,-118.344175,Burbank,CA,
91506,34.171746,-118.323148,Burbank,CA,
91601,34.16867,-118.371274,North Hollywood,CA,
91602,34.151095,-118.367606,Toluca Lake,CA,
91604,34.143025,-118.391311,Studio City,CA,
91605,34.205747,-118.400069,North Hollywood,CA,
91606,34.187182,-118.386538,North Hollywood,CA,
91607,34.167217,-118.398905,Valley Village,CA,
91701,34.133922,-117.599149,Alta Loma,CA,
91702,34.12476,-117.903083,Azusa,CA,
91706,34.084245,-117.969539,Irwindale,CA,
91709,33.979735,-117.730791,Chino Hills,CA,
91710,34.012532,-117.684401,Chino,CA,
91711,34.109167,-117.718293,Claremont,CA,
91719,33.861839,-117.531916,Corona,CA,
91720,33.876995,-117.594288,Corona,CA,
91722,34.097162,-117.906544,Covina,CA,
91723,34.08596,-117.884285,Covina,CA,
91724,34.093752,-117.855982,Covina,CA,
91730,34.107039,-117.59408,Rancho Cucamonga,CA,
91731,34.079142,-118.037108,El Monte,CA,
91732,34.070533,-118.01492,El Monte,CA,
91733,34.055676,-118.044381,South El Monte,CA,
91737,34.144883,-117.579295,Alta Loma,CA,
91739,34.119873,-117.519329,Etiwanda,CA,
91740,34.128663,-117.855155,Glendora,CA,
91744,34.029428,-117.934098,Industry,CA,
91745,33.997741,-117.965205,Hacienda Heights,CA,
91746,34.050963,-117.980026,Bassett,CA,
91748,33.981777,-117.896946,Rowland Heights,CA,
91750,34.115905,-117.77077,La Verne,CA,
91752,33.993845,-117.523574,Mira Loma,CA,
91754,34.053409,-118.127144,Monterey Park,CA,
91759,34.218082,-117.580219,Mt Baldy,CA,
91760,33.927983,-117.557866,Norco,CA,
91761,34.031647,-117.618662,Ontario,CA,
91762,34.058415,-117.66647,Ontario,CA,
91763,34.073298,-117.698669,Montclair,CA,
91764,34.076308,-117.625402,Ontario,CA,
91765,34.006585,-117.809822,Diamond Bar,CA,
91766,34.043268,-117.752086,Phillips Ranch,CA,
91767,34.081187,-117.736171,Pomona,CA,
91768,34.066168,-117.776312,Pomona,CA,
91770,34.065767,-118.08529,Rosemead,CA,
91773,34.102263,-117.81694,San Dimas,CA,
91775,34.115486,-118.085658,San Gabriel,CA,
91776,34.089027,-118.095471,San Gabriel,CA,
91780,34.101586,-118.053652,Temple City,CA,
91786,34.114432,-117.658336,Upland,CA,
91789,34.016625,-117.857828,Diamond Bar,CA,
91790,34.067336,-117.936643,West Covina,CA,
91791,34.065267,-117.897767,West Covina,CA,
91792,34.022852,-117.897459,West Covina,CA,
91801,34.091436,-118.129288,Alhambra,CA,
91803,34.074514,-118.143354,Alhambra,CA,
91901,32.828161,-116.754328,Alpine,CA,
91902,32.667143,-117.022065,Bonita,CA,
91905,32.671934,-116.319982,Boulevard,CA,
91906,32.660491,-116.490459,Campo,CA,
91910,32.637139,-117.06756,Chula Vista,CA,
91911,32.608428,-117.056459,Chula Vista,CA,
91913,32.651296,-116.985237,Chula Vista,CA,
91914,32.65875,-116.96517,Chula Vista,CA,
91915,32.631513,-116.940807,Chula Vista,CA,
91916,32.872971,-116.602732,Descanso,CA,
91917,32.615172,-116.728523,Dulzura,CA,
91932,32.578289,-117.11478,Imperial Beach,CA,
91934,32.624934,-116.195184,Jacumba,CA,
91935,32.716289,-116.832332,Jamul,CA,
91941,32.760431,-117.011541,La Mesa,CA,
91942,32.783506,-117.018879,La Mesa,CA,
91945,32.73323,-117.032646,Lemon Grove,CA,
91950,32.674916,-117.089747,National City,CA,
91962,32.835047,-116.512733,Pine Valley,CA,
91963,32.620477,-116.603748,Potrero,CA,
91977,32.724014,-116.997644,Spring Valley,CA,
91978,32.732892,-116.959551,Spring Valley,CA,
91980,32.592205,-116.606397,Tecate,CA,
92003,33.294033,-117.18969,Bonsall,CA,
92004,33.238649,-116.351394,Borrego Springs,CA,
92007,33.025265,-117.274371,Cardiff By The S,CA,
92008,33.160241,-117.324998,Carlsbad,CA,
92009,33.095407,-117.261888,Carlsbad,CA,
92014,32.971474,-117.237314,Del Mar,CA,
92019,32.777726,-116.919055,El Cajon,CA,
92020,32.792765,-116.966504,El Cajon,CA,
92021,32.817847,-116.922336,El Cajon,CA,
92024,33.053469,-117.26891,Encinitas,CA,
92025,33.110117,-117.069987,Escondido,CA,
92026,33.160513,-117.097808,Escondido,CA,
92027,33.138824,-117.051966,Escondido,CA,
92028,33.369015,-117.228952,Fallbrook,CA,
92029,33.089497,-117.112793,Escondido,CA,
92036,33.053355,-116.565812,Julian,CA,
92037,32.845488,-117.25208,La Jolla,CA,
92040,32.856181,-116.920089,Lakeside,CA,
92054,33.20723,-117.357294,Oceanside,CA,
92055,33.327929,-117.409452,Marine Corp Base,CA,
92056,33.196784,-117.283089,Oceanside,CA,
92057,33.240654,-117.302484,Oceanside,CA,
92059,33.377662,-117.071725,Pala,CA,
92061,33.306285,-116.959552,Pauma Valley,CA,
92064,32.975619,-117.040223,Poway,CA,
92065,33.029349,-116.853548,Ramona,CA,
92066,33.24055,-116.539121,Ranchita,CA,
92068,33.294367,-117.306403,San Luis Rey,CA,
92069,33.144386,-117.169716,San Marcos,CA,
92070,33.147579,-116.69635,Santa Ysabel,CA,
92071,32.848636,-116.986154,Santee,CA,
92075,32.993739,-117.2598,Solana Beach,CA,
92082,33.249046,-117.012232,Valley Center,CA,
92083,33.187296,-117.245854,Vista,CA,
92084,33.213118,-117.224285,Vista,CA,
92086,33.303666,-116.721385,Warner Springs,CA,
92101,32.71852,-117.159316,San Diego,CA,
92102,32.713893,-117.121858,San Diego,CA,
92103,32.746638,-117.163552,San Diego,CA,
92104,32.745425,-117.127189,San Diego,CA,
92105,32.7423,-117.094681,San Diego,CA,
92106,32.72725,-117.226829,San Diego,CA,
92107,32.742531,-117.243307,San Diego,CA,
92108,32.778327,-117.133525,San Diego,CA,
92109,32.796923,-117.240534,San Diego,CA,
92110,32.763476,-117.202847,San Diego,CA,
92111,32.797185,-117.17081,San Diego,CA,
92113,32.697047,-117.115257,San Diego,CA,
92114,32.705923,-117.05235,San Diego,CA,
92115,32.760742,-117.072056,San Diego,CA,
92116,32.762446,-117.124166,San Diego,CA,
92117,32.823948,-117.196536,San Diego,CA,
92118,32.68069,-117.169823,Coronado,CA,
92119,32.803587,-117.026065,San Diego,CA,
92120,32.79581,-117.070708,San Diego,CA,
92121,32.891894,-117.203503,San Diego,CA,
92122,32.857736,-117.211507,San Diego,CA,
92123,32.797297,-117.139248,San Diego,CA,
92124,32.820113,-117.098613,San Diego,CA,
92126,32.916136,-117.140227,San Diego,CA,
92127,33.027854,-117.085596,San Diego,CA,
92128,33.00666,-117.068982,San Diego,CA,
92129,32.965185,-117.121308,San Diego,CA,
92130,32.955533,-117.225201,San Diego,CA,
92131,32.912343,-117.089758,San Diego,CA,
92135,32.702482,-117.19202,San Diego,CA,
92136,32.681585,-117.124678,San Diego,CA,
92139,32.680612,-117.047375,San Diego,CA,
92145,32.870365,-117.116518,San Diego,CA,
92154,32.575276,-117.070725,San Diego,CA,
92155,32.676144,-117.160335,San Diego,CA,
92173,32.562567,-117.042976,San Ysidro,CA,
92201,33.721899,-116.235729,Chiriaco Summit,CA,
92210,33.716334,-116.338129,Indian Wells,CA,
92220,33.92816,-116.889928,Banning,CA,
92223,33.950429,-116.970079,Beaumont,CA,
92225,33.605715,-114.597131,Lost Lake,CA,
92227,32.979181,-115.529613,Brawley,CA,
92230,33.908583,-116.773948,Cabazon,CA,
92231,32.683227,-115.502815,Calexico,CA,
92233,33.166956,-115.511402,Calipatria,CA,
92234,33.809839,-116.466497,Cathedral City,CA,
92236,33.674965,-116.177231,Coachella,CA,
92239,33.604941,-115.052603,Eagle Mountain,CA,
92240,33.904973,-116.366222,Desert Hot Sprin,CA,
92242,34.149142,-114.33928,Big River,CA,
92243,32.789332,-115.566508,El Centro,CA,
92249,32.698918,-115.428281,Heber,CA,
92250,32.810387,-115.377456,Holtville,CA,
92251,32.846954,-115.572984,Imperial,CA,
92252,34.150163,-116.303763,Joshua Tree,CA,
92253,33.668474,-116.308081,La Quinta,CA,
92256,34.060646,-116.565641,Morongo Valley,CA,
92257,33.378373,-115.696455,Niland,CA,
92260,33.730842,-116.366442,Palm City,CA,
92262,33.841406,-116.53466,Palm Springs,CA,
92264,33.801828,-116.516958,Palm Springs,CA,
92267,34.297977,-114.155969,Parker Dam,CA,
92270,33.764284,-116.422451,Rancho Mirage,CA,
92272,33.951256,-116.495855,Blythe,CA,
92274,33.543418,-116.11584,Salton City,CA,
92276,33.808158,-116.371305,Thousand Palms,CA,
92277,34.145509,-116.060133,Twentynine Palms,CA,
92278,34.237969,-116.06041,Twentynine Palms,CA,
92280,34.156109,-114.565602,Vidal,CA,
92281,33.041058,-115.630723,Westmorland,CA,
92282,33.927591,-116.693154,White Water,CA,
92283,32.832922,-114.636634,Felicity,CA,
92284,34.155936,-116.431313,Yucca Valley,CA,
92301,34.584128,-117.424189,Adelanto,CA,
92304,34.599012,-115.774907,Amboy,CA,
92305,34.153149,-116.948482,Angelus Oaks,CA,
92307,34.529081,-117.2132,Apple Valley,CA,
92308,34.469814,-117.192684,Apple Valley,CA,
92309,35.360573,-116.063754,Baker,CA,
92310,35.40148,-116.644759,Fort Irwin,CA,
92311,34.89145,-117.038702,Barstow,CA,
92314,34.242233,-116.920412,Big Bear City,CA,
92316,34.066198,-117.399295,Bloomington,CA,
92320,33.994586,-117.04304,Calimesa,CA,
92324,34.057964,-117.318577,Grand Terrace,CA,
92327,34.86677,-116.887555,Daggett,CA,
92328,36.467165,-116.893682,Death Valley,CA,
92332,34.560626,-115.280344,Essex,CA,
92335,34.079351,-117.455114,Fontana,CA,
92336,34.117276,-117.437759,Fontana,CA,
92338,34.901779,-116.386202,Ludlow,CA,
92339,34.08805,-116.914147,Forest Falls,CA,
92342,34.749859,-117.33666,Helendale,CA,
92345,34.422215,-117.302527,Hesperia,CA,
92346,34.126969,-117.208717,East Highland,CA,
92347,34.92788,-117.180867,Hinkley,CA,
92351,34.9678,-115.577574,Kelso,CA,
92354,34.052833,-117.251286,Loma Linda,CA,
92356,34.44695,-116.918857,Lucerne Valley,CA,
92358,34.255755,-117.518613,Lytle Creek,CA,
92359,34.077372,-117.112581,Mentone,CA,
92363,34.782369,-114.587134,Needles,CA,
92364,35.46761,-115.481436,Nipton,CA,
92365,34.885001,-116.746373,Newberry Springs,CA,
92368,34.617832,-117.332733,Oro Grande,CA,
92371,34.444901,-117.519604,Phelan,CA,
92372,34.442937,-117.640262,Pinon Hills,CA,
92373,34.039659,-117.180352,Redlands,CA,
92374,34.064989,-117.167182,Redlands,CA,
92376,34.113155,-117.377133,Rialto,CA,
92384,35.899239,-116.264476,Shoshone,CA,
92389,35.897925,-115.829824,Tecopa,CA,
92392,34.503917,-117.319235,Spring Valley La,CA,
92394,34.577325,-117.363516,George Afb,CA,
92397,34.362839,-117.6249,Wrightwood,CA,
92399,34.028197,-117.048925,Yucaipa,CA,
92401,34.110521,-117.289753,San Bernardino,CA,
92404,34.142577,-117.260572,San Bernardino,CA,
92405,34.144101,-117.310765,Muscoy,CA,
92407,34.20928,-117.293697,San Bernardino,CA,
92408,34.083127,-117.271059,San Bernardino,CA,
92409,34.103685,-117.241291,San Bernardino,CA,
92410,34.107729,-117.296789,San Bernardino,CA,
92411,34.121414,-117.317158,San Bernardino,CA,
92501,33.9924,-117.369421,Riverside,CA,
92503,33.920808,-117.458862,Riverside,CA,
92504,33.931458,-117.411948,Riverside,CA,
92505,33.922769,-117.486687,Riverside,CA,
92506,33.945485,-117.375696,Riverside,CA,
92507,33.976086,-117.338874,Riverside,CA,
92508,33.889676,-117.304264,Riverside,CA,
92509,33.997355,-117.444896,Rubidoux,CA,
92530,33.659816,-117.348535,Lake Elsinore,CA,
92532,33.651662,-117.271278,Lake Elsinore,CA,
92536,33.447306,-116.799693,Aguanga,CA,
92539,33.568812,-116.71355,Anza,CA,
92543,33.741613,-116.972974,Hemet,CA,
92544,33.738978,-116.924306,Hemet,CA,
92545,33.739857,-117.015078,Hemet,CA,
92548,33.74528,-117.111845,Homeland,CA,
92549,33.730433,-116.710665,Idyllwild,CA,
92553,33.915719,-117.235066,Moreno Valley,CA,
92555,33.937659,-117.185105,Moreno Valley,CA,
92557,33.955257,-117.245682,Moreno Valley,CA,
92561,33.531667,-116.581954,Mountain Center,CA,
92562,33.563071,-117.273838,Murrieta,CA,
92563,33.56903,-117.178298,Murrieta,CA,
92567,33.807712,-117.118704,Lakeview,CA,
92570,33.797535,-117.280005,Mead Valley,CA,
92571,33.810979,-117.217968,Perris,CA,
92582,33.788281,-116.981911,San Jacinto,CA,
92583,33.78604,-116.955201,Gilman Hot Sprin,CA,
92584,33.664744,-117.1743,Menifee,CA,
92585,33.744518,-117.171899,Romoland,CA,
92586,33.704373,-117.196942,Sun City,CA,
92587,33.688756,-117.252653,Canyon Lake,CA,
92590,33.490269,-117.182437,Temecula,CA,
92591,33.521687,-117.128571,Temecula,CA,
92592,33.498314,-117.095774,Temecula,CA,
92595,33.602115,-117.263953,Wildomar,CA,
92596,33.624269,-117.088518,Winchester,CA,
92610,33.666822,-117.664995,Foothill Ranch,CA,
92621,33.922897,-117.886742,Brea,CA,
92624,33.459115,-117.662657,Capistrano Beach,CA,
92625,33.602066,-117.874331,Corona Del Mar,CA,
92626,33.677711,-117.909623,Costa Mesa,CA,
92627,33.647793,-117.917667,Costa Mesa,CA,
92629,33.476964,-117.700483,Monarch Bay,CA,
92630,33.640015,-117.68819,Lake Forest,CA,
92631,33.880519,-117.89157,Fullerton,CA,
92632,33.865848,-117.928376,Fullerton,CA,
92633,33.873913,-117.961043,Fullerton,CA,
92635,33.901181,-117.927801,Fullerton,CA,
92640,33.785826,-117.92906,Garden Grove,CA,
92641,33.786651,-117.975526,Garden Grove,CA,
92643,33.762641,-117.930193,Garden Grove,CA,
92644,33.765532,-117.96935,Garden Grove,CA,
92645,33.78324,-118.02639,Garden Grove,CA,
92646,33.668448,-117.967771,Huntington Beach,CA,
92647,33.721018,-118.003035,Huntington Beach,CA,
92648,33.674577,-117.999012,Huntington Beach,CA,
92649,33.719111,-118.045142,Huntington Beach,CA,
92651,33.542927,-117.772351,Laguna Niguel,CA,
92653,33.60028,-117.70854,Laguna Hills,CA,
92655,33.744794,-117.983539,Midway City,CA,
92656,33.572367,-117.708906,Aliso Viejo,CA,
92657,33.596382,-117.855317,Newport Beach,CA,
92660,33.630027,-117.8757,Newport Beach,CA,
92661,33.604429,-117.906237,Newport Beach,CA,
92662,33.606459,-117.891732,Newport Beach,CA,
92663,33.623084,-117.92788,Newport Beach,CA,
92665,33.83096,-117.844903,Orange,CA,
92666,33.785258,-117.845461,Orange,CA,
92667,33.81036,-117.828421,Villa Park,CA,
92668,33.786481,-117.87532,Orange,CA,
92669,33.791672,-117.800285,Orange,CA,
92670,33.880323,-117.859837,Placentia,CA,
92672,33.430809,-117.610139,San Clemente,CA,
92675,33.511714,-117.657409,Mission Viejo,CA,
92677,33.522871,-117.705154,Laguna Niguel,CA,
92679,33.634576,-117.577709,Coto De Caza,CA,
92680,33.73713,-117.819193,Tustin,CA,
92683,33.752756,-117.991312,Westminster,CA,
92686,33.888361,-117.799619,Yorba Linda,CA,
92687,33.88238,-117.731162,Yorba Linda,CA,
92688,33.651822,-117.588388,Rancho Santa Mar,CA,
92691,33.617155,-117.664119,Mission Viejo,CA,
92692,33.610872,-117.64245,Mission Viejo,CA,
92701,33.75016,-117.857665,Santa Ana,CA,
92703,33.746613,-117.899589,Santa Ana,CA,
92704,33.726513,-117.904683,Santa Ana,CA,
92705,33.74866,-117.768902,Cowan Heights,CA,
92706,33.764434,-117.881791,Santa Ana,CA,
92707,33.715938,-117.870346,Santa Ana Height,CA,
92708,33.710762,-117.952318,Fountain Valley,CA,
92709,33.681287,-117.715018,El Toro Marine C,CA,
92714,33.68764,-117.798928,Irvine,CA,
92715,33.650884,-117.821251,Irvine,CA,
92718,33.658179,-117.711476,Irvine,CA,
92720,33.707495,-117.765533,Irvine,CA,
92801,33.842679,-117.954035,Anaheim,CA,
92802,33.806909,-117.92219,Anaheim,CA,
92804,33.81908,-117.974985,Anaheim,CA,
92805,33.835332,-117.906263,Anaheim,CA,
92806,33.837344,-117.875928,Anaheim,CA,
92807,33.851583,-117.787657,Anaheim,CA,
92808,33.857569,-117.748445,Anaheim,CA,
93001,34.290531,-119.28882,San Buenaventura,CA,
93003,34.270568,-119.2214,San Buenaventura,CA,
93004,34.278091,-119.168727,San Buenaventura,CA,
93010,34.231328,-119.046361,Camarillo,CA,
93012,34.22179,-118.986648,Camarillo,CA,
93013,34.403589,-119.518257,Carpinteria,CA,
93015,34.402557,-118.904071,Bardsdale,CA,
93021,34.278421,-118.877139,Moorpark,CA,
93022,34.402021,-119.298168,Oak View,CA,
93023,34.44512,-119.256477,Ojai,CA,
93030,34.214142,-119.174952,Oxnard,CA,
93033,34.168505,-119.171732,Oxnard,CA,
93035,34.182177,-119.215975,Oxnard,CA,
93041,34.162572,-119.197317,Port Hueneme,CA,
93042,34.123432,-119.09931,Point Mugu Nawc,CA,
93043,34.16212,-119.206008,Port Hueneme Cbc,CA,
93060,34.354718,-119.071328,Santa Paula,CA,
93063,34.279202,-118.699229,Santa Susana,CA,
93065,34.265589,-118.765349,Simi Valley,CA,
93066,34.279753,-119.011537,Somis,CA,
93067,34.424541,-119.596016,Summerland,CA,
93101,34.419668,-119.70782,Santa Barbara,CA,
93103,34.429065,-119.683275,Santa Barbara,CA,
93105,34.436915,-119.728538,Santa Barbara,CA,
93108,34.434258,-119.64255,Montecito,CA,
93109,34.403848,-119.7194,Santa Barbara,CA,
93110,34.441814,-119.764668,Santa Barbara,CA,
93111,34.445262,-119.802509,Santa Barbara,CA,
93117,34.429631,-119.861245,Goleta,CA,
93202,36.309459,-119.705279,Armona,CA,
93203,35.196629,-118.8336,Arvin,CA,
93204,35.987667,-120.122716,Avenal,CA,
93205,35.587046,-118.484656,Bodfish,CA,
93206,35.403268,-119.465926,Buttonwillow,CA,
93207,35.892422,-118.646317,California Hot S,CA,
93210,36.162435,-120.348928,Coalinga,CA,
93212,36.086455,-119.560665,Corcoran,CA,
93214,34.933694,-119.661339,Cuyama,CA,
93215,35.771511,-119.24594,Delano,CA,
93217,35.247604,-118.846755,Di Giorgio,CA,
93219,35.854195,-119.253406,Earlimart,CA,
93221,36.304055,-119.12928,Exeter,CA,
93223,36.300169,-119.205357,Farmersville,CA,
93224,35.202579,-119.564757,Fellows,CA,
93225,34.826463,-119.035488,Frazier Park,CA,
93226,35.737677,-118.71693,Glennville,CA,
93230,36.331419,-119.649094,Hanford,CA,
93234,36.237144,-120.101964,Huron,CA,
93235,36.385622,-119.218884,Ivanhoe,CA,
93238,35.755005,-118.404723,Kernville,CA,
93239,36.021501,-119.964361,Kettleman City,CA,
93240,35.617889,-118.441256,Mountain Mesa,CA,
93241,35.257059,-118.912419,Lamont,CA,
93242,36.437834,-119.715565,Laton,CA,
93243,34.828862,-118.879126,Gorman,CA,
93244,36.396084,-119.004986,Lemoncove,CA,
93245,36.309535,-119.831017,Lemoore Naval Ai,CA,
93247,36.209551,-119.088427,Lindsay,CA,
93249,35.613111,-119.721573,Lost Hills,CA,
93250,35.675779,-119.227156,Mc Farland,CA,
93251,35.303097,-119.636627,Mc Kittrick,CA,
93252,35.038353,-119.407661,Maricopa,CA,
93254,34.996709,-119.823806,New Cuyama,CA,
93255,35.713584,-118.190227,Onyx,CA,
93256,35.955286,-119.256427,Pixley,CA,
93257,36.068636,-119.031549,Porterville,CA,
93260,35.813496,-118.664286,Posey,CA,
93262,36.573878,-118.772271,Giant Forest,CA,
93263,35.496994,-119.280075,Shafter,CA,
93265,36.136314,-118.796059,Springville,CA,
93266,36.178976,-119.823564,Stratford,CA,
93267,36.147237,-119.079163,Strathmore,CA,
93268,35.148164,-119.455674,Taft,CA,
93270,35.95698,-119.031239,Terra Bella,CA,
93271,36.437686,-118.88754,Three Rivers,CA,
93272,36.054567,-119.30781,Tipton,CA,
93274,36.202155,-119.33802,Tulare,CA,
93276,35.288547,-119.341994,Tupman,CA,
93277,36.311379,-119.306471,Visalia,CA,
93280,35.593375,-119.344728,Pond,CA,
93283,35.639076,-118.285856,Weldon,CA,
93285,35.724556,-118.455877,Wofford Heights,CA,
93286,36.431334,-119.091764,Woodlake,CA,
93287,35.70681,-118.843872,Woody,CA,
93291,36.355108,-119.301029,Visalia,CA,
93301,35.386611,-119.017063,Bakersfield,CA,
93304,35.339581,-119.021793,Bakersfield,CA,
93305,35.387772,-118.982042,College Heights,CA,
93306,35.386697,-118.939104,Bakersfield,CA,
93307,35.327484,-118.983851,Bakersfield,CA,
93308,35.424395,-119.043319,Bakersfield,CA,
93309,35.33839,-119.062713,Bakersfield,CA,
93311,35.303891,-119.105647,Bakersfield,CA,
93312,35.382082,-119.15014,Greenacres,CA,
93313,35.297391,-119.050936,Bakersfield,CA,
93401,35.263453,-120.650933,San Luis Obispo,CA,
93402,35.317203,-120.833261,Los Osos,CA,
93405,35.290058,-120.681724,San Luis Obispo,CA,
93420,35.11449,-120.57289,Halcyon,CA,
93422,35.475439,-120.663838,Atascadero,CA,
93426,35.809255,-120.972793,Bradley,CA,
93427,34.62093,-120.192233,Buellton,CA,
93428,35.556568,-121.084029,Cambria,CA,
93430,35.444606,-120.890791,Cayucos,CA,
93431,35.543847,-120.194827,Cholame,CA,
93432,35.491543,-120.554238,Creston,CA,
93433,35.120969,-120.617348,Grover Beach,CA,
93434,34.959989,-120.570329,Guadalupe,CA,
93436,34.658349,-120.450605,Lompoc,CA,
93437,34.753215,-120.517096,Lompoc,CA,
93442,35.37953,-120.844745,Morro Bay,CA,
93444,35.029806,-120.489413,Nipomo,CA,
93445,35.10187,-120.608044,Oceano,CA,
93446,35.635248,-120.670676,Adelaide,CA,
93449,35.149212,-120.651788,Shell Beach,CA,
93450,35.985685,-120.861191,San Ardo,CA,
93451,35.753209,-120.696532,Parkfield,CA,
93452,35.666815,-121.144033,San Simeon,CA,
93453,35.341254,-120.3202,California Valle,CA,
93454,34.954538,-120.43245,Santa Maria,CA,
93455,34.879786,-120.429128,Orcutt,CA,
93460,34.623966,-120.071332,Santa Ynez,CA,
93461,35.651273,-120.372047,Shandon,CA,
93463,34.609931,-120.129286,Ballard,CA,
93465,35.555082,-120.710737,Templeton,CA,
93501,35.047767,-118.173475,Mojave,CA,
93505,35.127783,-117.965142,California City,CA,
93510,34.483541,-118.195929,Acton,CA,
93512,37.798099,-118.498526,Benton,CA,
93513,37.167857,-118.291597,Big Pine,CA,
93514,37.386301,-118.44156,Toms Place,CA,
93516,35.003748,-117.662921,Boron,CA,
93517,38.256601,-119.208025,Bridgeport,CA,
93518,35.356798,-118.410264,Havilah,CA,
93519,35.282558,-117.993868,Cantil,CA,
93523,34.930507,-117.915384,North Edwards,CA,
93526,36.839578,-118.204808,Independence,CA,
93527,35.674498,-117.834844,Pearsonville,CA,
93528,35.370655,-117.637325,Johannesburg,CA,
93529,37.777324,-119.082492,June Lake,CA,
93531,35.237502,-118.607563,Keene,CA,
93532,34.668297,-118.444719,Elizabeth Lake,CA,
93534,34.690888,-118.149129,Lancaster,CA,
93535,34.684751,-118.063245,Hi Vista,CA,
93536,34.673619,-118.213336,Quartz Hill,CA,
93541,37.988988,-119.123413,Lee Vining,CA,
93543,34.547372,-117.957405,Juniper Hills,CA,
93544,34.495914,-117.798841,Crystalaire,CA,
93545,36.579781,-118.057824,Lone Pine,CA,
93546,37.642361,-118.976383,Crowley Lake,CA,
93550,34.571483,-118.061306,Lake Los Angeles,CA,
93551,34.601404,-118.181207,Leona Valley,CA,
93553,34.491124,-117.902893,Juniper Hills,CA,
93554,35.352176,-117.726396,Randsburg,CA,
93555,35.631376,-117.679733,China Lake Nwc,CA,
93560,34.863117,-118.19636,Willow Springs,CA,
93561,35.129776,-118.522227,Bear Valley Spri,CA,
93562,35.760817,-117.382992,Argus,CA,
93563,34.339014,-117.8271,Valyermo,CA,
93601,37.407631,-119.723251,Ahwahnee,CA,
93602,37.072635,-119.457202,Auberry,CA,
93604,37.324359,-119.556839,Bass Lake,CA,
93608,36.492123,-120.335252,Cantua Creek,CA,
93609,36.535847,-119.844581,Caruthers,CA,
93610,37.101371,-120.269077,Chowchilla,CA,
93612,36.823146,-119.689757,Clovis,CA,
93614,37.221378,-119.745545,Coarsegold,CA,
93615,36.524266,-119.287023,Cutler,CA,
93616,36.654306,-119.59291,Del Rey,CA,
93618,36.534931,-119.39087,Dinuba,CA,
93620,37.00253,-120.633348,Dos Palos,CA,
93621,36.744635,-119.089931,Dunlap,CA,
93622,36.8651,-120.470048,Firebaugh,CA,
93623,37.51692,-119.642005,Fish Camp,CA,
93625,36.628153,-119.671025,Fowler,CA,
93626,37.002416,-119.696501,Friant,CA,
93627,36.499231,-120.093598,Helm,CA,
93630,36.730576,-120.072444,Kerman,CA,
93631,36.508047,-119.543298,Kingsburg,CA,
93633,36.780601,-119.068201,Kings Canyon Nat,CA,
93635,37.06266,-120.854387,Los Banos,CA,
93637,36.94026,-120.081966,Madera,CA,
93638,36.968726,-120.012778,Madera,CA,
93640,36.742365,-120.409287,Mendota,CA,
93641,36.68938,-119.047718,Miramonte,CA,
93643,37.212531,-119.514324,North Fork,CA,
93644,37.347561,-119.644854,Oakhurst,CA,
93645,37.086874,-119.745369,O Neals,CA,
93646,36.624283,-119.313502,Orange Cove,CA,
93647,36.546368,-119.281522,Orosi,CA,
93648,36.610265,-119.537482,Parlier,CA,
93650,36.841107,-119.800359,Pinedale,CA,
93651,36.993799,-119.526771,Prather,CA,
93652,36.598928,-119.903158,Raisin,CA,
93653,37.27898,-119.876567,Raymond,CA,
93654,36.604406,-119.437785,Reedley,CA,
93656,36.429525,-119.871953,Riverdale,CA,
93657,36.7243,-119.547796,Sanger,CA,
93660,36.605869,-120.188934,San Joaquin,CA,
93662,36.569524,-119.617026,Selma,CA,
93664,37.139695,-119.273031,Shaver Lake,CA,
93667,36.99434,-119.391415,Tollhouse,CA,
93668,36.658376,-120.261655,Tranquillity,CA,
93669,37.281028,-119.557014,Wishon,CA,
93675,36.707146,-119.181449,Squaw Valley,CA,
93701,36.748727,-119.786705,Fresno,CA,
93702,36.739954,-119.753215,Fresno,CA,
93703,36.768445,-119.759401,Fresno,CA,
93704,36.798781,-119.799745,Fig Garden Villa,CA,
93705,36.786285,-119.828617,Fresno,CA,
93706,36.700589,-119.820408,Easton,CA,
93710,36.823643,-119.76205,Fresno,CA,
93711,36.830297,-119.831896,Fresno,CA,
93720,36.857944,-119.765522,Fresno,CA,
93721,36.737714,-119.784273,Fresno,CA,
93722,36.791779,-119.880119,Fresno,CA,
93725,36.675312,-119.742477,Calwa,CA,
93726,36.794943,-119.760445,Fresno,CA,
93727,36.752796,-119.706055,Fresno,CA,
93728,36.758095,-119.811314,Fresno,CA,
93901,36.667693,-121.659589,Salinas,CA,
93905,36.681143,-121.617606,Salinas,CA,
93906,36.710339,-121.643805,Salinas,CA,
93907,36.765385,-121.665588,Prunedale,CA,
93908,36.601122,-121.672861,Salinas,CA,
93920,36.245798,-121.700897,Big Sur,CA,
93923,36.545693,-121.894875,Carmel,CA,
93924,36.478709,-121.724356,Carmel Valley,CA,
93925,36.595042,-121.431964,Chualar,CA,
93926,36.490038,-121.410347,Gonzales,CA,
93927,36.320178,-121.24507,Greenfield,CA,
93930,36.202776,-121.127329,King City,CA,
93932,35.989287,-121.205946,Lockwood,CA,
93933,36.684922,-121.793383,Marina,CA,
93940,36.595642,-121.8848,Del Rey Oaks,CA,
93941,36.644627,-121.804999,Fort Ord,CA,
93950,36.616737,-121.921957,Pacific Grove,CA,
93953,36.590735,-121.942044,Pebble Beach,CA,
93955,36.609208,-121.835724,Sand City,CA,
93960,36.41964,-121.324286,Soledad,CA,
94002,37.517433,-122.292671,Belmont,CA,
94005,37.681104,-122.400118,Brisbane,CA,
94010,37.575884,-122.362952,Hillsborough,CA,
94014,37.698187,-122.452679,Colma,CA,
94015,37.678696,-122.478015,Daly City,CA,
94019,37.479057,-122.445929,Half Moon Bay,CA,
94020,37.272285,-122.293889,La Honda,CA,
94021,37.254437,-122.281996,Loma Mar,CA,
94022,37.381432,-122.125754,Los Altos,CA,
94024,37.354745,-122.086205,Los Altos,CA,
94025,37.453401,-122.179136,West Menlo Park,CA,
94027,37.456255,-122.200198,Atherton,CA,
94028,37.378859,-122.208131,Ladera,CA,
94030,37.600382,-122.401985,Millbrae,CA,
94035,37.41001,-122.051944,Moffett Field,CA,
94038,37.531039,-122.50683,Moss Beach,CA,
94040,37.385532,-122.087983,Mountain View,CA,
94041,37.389347,-122.078341,Mountain View,CA,
